Unit ID,Unit Name,Unit type,Country,Fuel type,Status,Latitude,Longitude,Location accuracy,Owner,Parent,Production (Mtpa),Mine Type,Mine Size (Km2),Mine Depth (m),Coal Type,Coal Grade,GEM Coal Mine Methane Emissions Estimate (MCM/yr),Month_1,Month_2,Month_3,Month_4,Month_5,Month_6,Month_7,Month_8,Month_9,Month_10,Month_11,Month_12
M0001,Shadashak Coal Mine, ,Afghanistan,coal,Operating,35.863255,67.596674,Approximate,North Coal Enterprise (NCE),North Coal Enterprise (NCE) [100%],1.1,Underground,,494.0,Bituminous,Met,24.1,0,0,0,0,0,0,0,0,0,0,0,0
M0002,Airly Coal Mine, ,Australia,coal,Operating,-33.1130709,150.0149367,Exact,Centennial Coal Company Pty Ltd,Banpu PCL [100.0%],1.17,Underground,40,500.0,Bituminous,Thermal,25.8,0,0,0,0,0,0,0,0,0,0,0,0
M0004,Angus Place Coal Mine, ,Australia,coal,Cancelled,-33.349157,150.199019,Exact,Centennial Springvale Pty Ltd [50%]; Boulder Mining Pty Ltd [50%],Banpu PCL [100.0%],,Underground,104.6,500.0,Subbituminous,Thermal,21.6,0,0,0,0,0,0,0,0,0,0,0,0
M0004,Angus Place Coal Mine, ,Australia,coal,Mothballed,-33.351985,150.099356,Exact,Centennial Springvale Pty Ltd [50%]; Boulder Mining Pty Ltd [50%],Banpu PCL [100.0%],0,Underground,,550.0,Subbituminous,Thermal,0.0,0,0,0,0,0,0,0,0,0,0,0,0
M0005,Appin Coal Mine, ,Australia,coal,Operating,-34.211194,150.792736,Exact,Illawarra Coal,South32 Ltd [100.0%],3.9,Underground,,550.0,Bituminous,Met,89.2,0,0,0,0,0,0,0,0,0,0,0,0
M0006,Aquila Coal Mine, ,Australia,coal,Operating,-22.9816055,148.5373229,Exact,Capcoal,Anglo American PLC [70.0%]; Mitsui & Co Ltd [30.0%],3.45,Underground,,175.0,Bituminous,Met,43.0,0,0,0,0,0,0,0,0,0,0,0,0
M0007,Ashton Coal Mine, ,Australia,coal,Operating,-32.468942,151.078493,Exact,Ashton Coal Operations,Yancoal Australia Ltd [100.0%],0.9,Underground & Surface,3.15,200.0,Bituminous,Met,12.4,0,0,0,0,0,0,0,0,0,0,0,0
M0007,Ashton Coal Mine, ,Australia,coal,Cancelled,-32.468942,151.078493,Exact,Ashton Coal Operations,Yancoal Australia Ltd [100.0%],,Surface,,60.0,Bituminous,Thermal & Met,12.6,0,0,0,0,0,0,0,0,0,0,0,0
M0008,Baralaba Coal Mine, ,Australia,coal,Operating,-24.13680401,149.7936125,Exact,Baralaba Coal Co,AMCI Group [100.0%],1.571,Surface,,60.0,Bituminous,Thermal & Met,8.2,0,0,0,0,0,0,0,0,0,0,0,0
M0008,Baralaba Coal Mine, ,Australia,coal,Proposed,-24.15411438,149.8027197,Exact,Baralaba Coal Co,AMCI Group [100.0%],,Surface,22,60.0,Bituminous,Thermal & Met,10.5,0,0,0,0,0,0,0,0,0,0,0,0
M0009,Belview Coal Mine, ,Australia,coal,Shelved,-23.587132,148.977385,Exact,Stanmore Resources Ltd,Stanmore Resources Ltd [100%],,Underground,,500.0,Bituminous,Met,57.4,0,0,0,0,0,0,0,0,0,0,0,0
M0010,Bengalla Coal Mine, ,Australia,coal,Operating,-32.268076,150.84,Exact,Bengalla Mining Company,New Hope Group [80.0%]; Taiwan Power Co [20.0%],11.7,Surface,12,270.0,Subbituminous,Thermal,54.4,0,0,0,0,0,0,0,0,0,0,0,0
M0011,Blackwater Coal Mine, ,Australia,coal,Operating,-23.685585,148.807361,Exact,BHP Billiton Mitsubishi Alliance Pty Ltd,BHP Group Ltd [50.0%]; Mitsubishi Corp [50.0%],14.288,Surface,210,60.0,Bituminous,Thermal & Met,75.0,0,0,0,0,0,0,0,0,0,0,0,0
M0012,Blair Athol Coal Mine, ,Australia,coal,Operating,-22.703221,147.54353,Exact,Orion Mining,TerraCom Ltd [100.0%],2.782,Surface,,50.0,Subbituminous,Thermal,3.3,0,0,0,0,0,0,0,0,0,0,0,0
M0013,Bloomfield Coal Mine, ,Australia,coal,Operating,-32.7928986,151.5841947,Exact,Bloomfield Collieries Pty Limited,Bloomfield Group [100.0%],0.52,Surface,,60.0,Bituminous,Thermal & Met,2.7,0,0,0,0,0,0,0,0,0,0,0,0
M0014,Boggabri Coal Mine, ,Australia,coal,Operating,-30.6116182,150.1550389,Exact,Boggabri Coal Operations,Idemitsu Kosan Co Ltd [100.0%],5.7,Surface,20.56,60.0,Bituminous,Thermal & Met,29.9,0,0,0,0,0,0,0,0,0,0,0,0
M0014,Boggabri Coal Mine, ,Australia,coal,Proposed,-30.6116182,150.1550389,Approximate,Boggabri Coal Operations,Idemitsu Kosan Co Ltd [100.0%],,Surface,,60.0,Bituminous,Thermal & Met,2.6,0,0,0,0,0,0,0,0,0,0,0,0
M0016,Broadmeadow Coal Mine, ,Australia,coal,Operating,-21.8025693,147.98,Exact,BM Alliance Coal Operations Pty Ltd,BHP [50.0%]; Mitsubishi Corp [50.0%],8.395,Underground,,500.0,Bituminous,Met,185.4,0,0,0,0,0,0,0,0,0,0,0,0
M0017,Bulga Coal Mine, ,Australia,coal,Proposed,-32.6795434,151.1000279,Exact,Bulga Coal Management [BCM],Glencore PLC [72.6%]; ENEOS Australia Pty Ltd [13.3%]; Nippon Steel Corp [12.5%],,Surface,0.2,90.0,Bituminous,Thermal,,0,0,0,0,0,0,0,0,0,0,0,0
M0017,Bulga Coal Mine, ,Australia,coal,Operating,-32.6795434,151.1000279,Exact,Bulga Coal Management [BCM],Glencore PLC [72.6%]; ENEOS Australia Pty Ltd [13.3%]; Nippon Steel Corp [12.5%],6.35,Underground & Surface,55,60.0,Bituminous,Thermal & Met,33.3,0,0,0,0,0,0,0,0,0,0,0,0
M0018,Byerwen Coal Mine, ,Australia,coal,Operating,-21.242828,147.835392,Exact,Byerwen Coal,QCoal [85.0%]; JFE Holdings Inc [15.0%],6.197,Surface,69.97,60.0,Bituminous,Thermal & Met,32.5,0,0,0,0,0,0,0,0,0,0,0,0
M0019,Callide Coal Mine, ,Australia,coal,Operating,-24.310921,150.622173,Exact,Batchfire Resources,Batchfire Resources [100%],7.593,Surface,176,50.0,Subbituminous,Thermal,9.1,0,0,0,0,0,0,0,0,0,0,0,0
M0020,Cameby Downs Coal Mine, ,Australia,coal,Proposed,-26.6540316,150.3354945,Exact,Syntech Resources,Shandong Energy Group Co Ltd [70.0%]; Shandong Guohui Investment Co Ltd [20.0%]; Shandong Caixin Asset Operation Co Ltd [10.0%],,Surface,79.11,50.0,Subbituminous,Thermal,3.6,0,0,0,0,0,0,0,0,0,0,0,0
M0020,Cameby Downs Coal Mine, ,Australia,coal,Operating,-26.6181915,150.3548193,Exact,Syntech Resources,Shandong Energy Group Co Ltd [70.0%]; Shandong Guohui Investment Co Ltd [20.0%]; Shandong Caixin Asset Operation Co Ltd [10.0%],2.86,Surface,,60.0,Bituminous,Thermal,15.0,0,0,0,0,0,0,0,0,0,0,0,0
M0021,CapCoal Mine Complex, ,Australia,coal,Operating,-22.990997,148.580506,Exact,Capcoal,Anglo American PLC [70.0%]; Mitsui & Co Ltd [30.0%],8.403,Underground & Surface,340,60.0,Bituminous,Thermal & Met,44.1,0,0,0,0,0,0,0,0,0,0,0,0
M0022,Carborough Downs Coal Mine, ,Australia,coal,Operating,-21.9502,148.2094,Exact,Fitzroy Australia Resources Pty Ltd,American Metals & Coal International Inc [50.0%]; ITOCHU Corp [50.0%],2.823,Underground,,500.0,Bituminous,Thermal & Met,62.3,0,0,0,0,0,0,0,0,0,0,0,0
M0022,Carborough Downs Coal Mine, ,Australia,coal,Proposed,-21.9502,148.2094,Exact,Fitzroy Australia Resources Pty Ltd,American Metals & Coal International Inc [50.0%]; ITOCHU Corp [50.0%],,Underground,,500.0,Bituminous,Met,55.2,0,0,0,0,0,0,0,0,0,0,0,0
M0023,Carmichael Coal Project, ,Australia,coal,Operating,-22.073611,146.329722,Approximate,Adani Mining Pty Ltd,Adani Enterprises Ltd [100.0%],2.794,Underground & Surface,447,300.0,Subbituminous,Thermal,14.8,0,0,0,0,0,0,0,0,0,0,0,0
M0023,Carmichael Coal Project, ,Australia,coal,Proposed,-22.073611,146.329722,Approximate,Adani Mining Pty Ltd,Adani Enterprises Ltd [100.0%],,Underground & Surface,447,60.0,Subbituminous,Thermal,43.2,0,0,0,0,0,0,0,0,0,0,0,0
M0023,Carmichael Coal Project, ,Australia,coal,Proposed,-22.073611,146.329722,Approximate,Adani Mining Pty Ltd,Adani Enterprises Ltd [100.0%],,Underground & Surface,447,400.0,Subbituminous,Thermal,115.2,0,0,0,0,0,0,0,0,0,0,0,0
M0024,Caval Ridge Coal Mine, ,Australia,coal,Operating,-22.1056069,148.0475444,Exact,BHP Billiton Mitsubishi Alliance Pty Ltd,BHP Group Ltd [50.0%]; Mitsubishi Corp [50.0%],14.894,Surface,14,60.0,Bituminous,Met,78.2,0,0,0,0,0,0,0,0,0,0,0,0
M0024,Caval Ridge Coal Mine, ,Australia,coal,Proposed,-22.1056069,148.0475444,Exact,BHP Billiton Mitsubishi Alliance Pty Ltd,BHP Group Ltd [50.0%]; Mitsubishi Corp [50.0%],,Surface,14,60.0,Bituminous,Met,78.8,0,0,0,0,0,0,0,0,0,0,0,0
M0025,Central Queensland Coal Mine, ,Australia,coal,Cancelled,-22.679446,149.659662,Exact,Central Queensland Coal Pty Ltd,Mineralogy Pty Ltd [100.0%],,Surface,,60.0,Bituminous,Thermal & Met,10.5,0,0,0,0,0,0,0,0,0,0,0,0
M0026,Clarence Colliery, ,Australia,coal,Operating,-33.4597,150.2479,Exact,Centennial Coal - Clarence Joint Venture,Banpu PCL [85.0%]; SK Energy [15.0%],1.42,Underground,,500.0,Bituminous,Thermal,31.4,0,0,0,0,0,0,0,0,0,0,0,0
M0027,Clermont Coal Mine, ,Australia,coal,Operating,-22.7201075,147.6195648,Exact,Clermont Coal Operations Pty Limited,Glencore PLC [37.1%]; Sumitomo Corp [37.1%]; J-Power Australia Pty Ltd [22.2%],10.85,Surface,163.07,60.0,Bituminous,Thermal,57.0,0,0,0,0,0,0,0,0,0,0,0,0
M0028,Collinsville Coal Mine, ,Australia,coal,Operating,-20.5567302,147.8148229,Exact,NC Coal Company Pty Ltd,Glencore PLC [100.0%],3.583,Surface,,60.0,Bituminous,Thermal & Met,18.8,0,0,0,0,0,0,0,0,0,0,0,0
M0029,Commodore Coal Mine, ,Australia,coal,Operating,-27.9343501,151.2554422,Exact,Downer EDI,Downer EDI Ltd [100%],3.507,Surface,,60.0,Bituminous,Thermal,18.4,0,0,0,0,0,0,0,0,0,0,0,0
M0029,Commodore Coal Mine, ,Australia,coal,Proposed,-27.9343501,151.2554422,Exact,Downer EDI,Downer EDI Ltd [100%],,Surface,,60.0,Bituminous,Thermal,2.1,0,0,0,0,0,0,0,0,0,0,0,0
M0030,Cows Coal Mine, ,Australia,coal,Operating,-20.63668673,147.85009,Exact,QCoal,QCoal [100%],,Surface,,60.0,Bituminous,Thermal & Met,5.3,0,0,0,0,0,0,0,0,0,0,0,0
M0031,Curragh Coal Mine, ,Australia,coal,Proposed,-23.493219,148.842723,Exact,Coronado Global Resources Inc,Coronado Global Resources Inc [100%],,Underground,,500.0,Bituminous,Thermal,,0,0,0,0,0,0,0,0,0,0,0,0
M0031,Curragh Coal Mine, ,Australia,coal,Operating,-23.493219,148.842723,Exact,Coronado Global Resources Inc,Coronado Global Resources Inc [100%],12.161,Surface,126,60.0,Bituminous,Thermal & Met,63.8,0,0,0,0,0,0,0,0,0,0,0,0
M0032,Daunia Coal Mine, ,Australia,coal,Operating,-22.0410919,148.2702015,Exact,BHP Billiton Mitsubishi Alliance Pty Ltd,BHP Group Ltd [50.0%]; Mitsubishi Corp [50.0%],3.651,Surface,,60.0,Bituminous,Thermal & Met,19.2,0,0,0,0,0,0,0,0,0,0,0,0
M0033,Dawson Complex, ,Australia,coal,Operating,-24.6168211,150.0504833,Exact,Dawson Joint Venture,Anglo American PLC [51.0%]; Mitsui & Co Ltd [49.0%],6.087,Surface,,60.0,Bituminous,Thermal & Met,32.0,0,0,0,0,0,0,0,0,0,0,0,0
M0034,Dendrobium Coal Mine, ,Australia,coal,Operating,-34.419776,150.826135,Exact,Illawarra Coal,South32 Ltd [100.0%],2.61,Underground,,350.0,Bituminous,Met,49.2,0,0,0,0,0,0,0,0,0,0,0,0
M0034,Dendrobium Extension Project, ,Australia,coal,Cancelled,-34.419776,150.826135,Exact,Illawarra Coal,South32 Ltd [100.0%],,Underground,,350.0,Bituminous,Met,,0,0,0,0,0,0,0,0,0,0,0,0
M0035,Drake Coal Mine, ,Australia,coal,Operating,-20.705189,147.812727,Exact,QCoal,QCoal [100%],5.312,Surface,,60.0,Bituminous,Thermal & Met,27.9,0,0,0,0,0,0,0,0,0,0,0,0
M0036,Dysart East Coal Project, ,Australia,coal,Proposed,-22.550335,148.414404,Approximate,Mastermyne Group,Metarock Group Ltd [100%],,Underground,,500.0,Bituminous,Met,42.0,0,0,0,0,0,0,0,0,0,0,0,0
M0037,Eagle Downs Coal Project, ,Australia,coal,Cancelled,-22.189318,148.204249,Exact,Aquila; South33,Aquila [100%],,Underground,45,500.0,Bituminous,Met,77.3,0,0,0,0,0,0,0,0,0,0,0,0
M0037,Eagle Downs Coal Project, ,Australia,coal,Cancelled,-22.189318,148.204249,Exact,Aquila; South32,Aquila [100%],,Underground,45,500.0,Bituminous,Met,99.4,0,0,0,0,0,0,0,0,0,0,0,0
M0038,Ensham Coal Mine, ,Australia,coal,Operating,-23.454464,148.497455,Exact,Sungela,Thungela Resources Ltd [75.0%]; Audley Energy Ltd [12.5%]; Mayfair Corporations Group Pty Ltd [12.5%],3.91,Underground & Surface,27.37,210.0,Subbituminous,Thermal,16.3,0,0,0,0,0,0,0,0,0,0,0,0
M0038,Ensham Coal Mine, ,Australia,coal,Proposed,-23.454464,148.497455,Exact,Sungela,Thungela Resources Ltd [75.0%]; Audley Energy Ltd [12.5%]; Mayfair Corporations Group Pty Ltd [12.5%],,Underground & Surface,,210.0,Subbituminous,Thermal,,0,0,0,0,0,0,0,0,0,0,0,0
M0039,Ewington Coal Mine, ,Australia,coal,Operating,-33.3624,116.25,Exact,Griffin Coal Mining Company Pty Ltd,Lanco Resources Australia Pty Ltd [100.0%],2,Surface,,60.0,Bituminous,Thermal & Met,10.5,0,0,0,0,0,0,0,0,0,0,0,0
M0040,Foxleigh Coal Mine, ,Australia,coal,Operating,-22.997778,148.803889,Exact,Middlemount South Limited,QMetco Ltd [100.0%],3.42,Surface,,60.0,Bituminous,Met,18.0,0,0,0,0,0,0,0,0,0,0,0,0
M0041,Galilee Coal Mine, ,Australia,coal,Shelved,-23.498536,145.94229,Approximate,Waratah Coal Pty Ltd,Mineralogy Pty Ltd [100.0%],,Underground & Surface,120,60.0,Subbituminous,Thermal,54.0,0,0,0,0,0,0,0,0,0,0,0,0
M0042,Glendell Coal Mine, ,Australia,coal,Shelved,-32.45121527,151.0783194,Exact,Mt Owen Pty Limited,Glencore PLC [100.0%],,Surface,6.6,60.0,Bituminous,Thermal,28.9,0,0,0,0,0,0,0,0,0,0,0,0
M0042,Glendell Coal Mine, ,Australia,coal,Operating,-32.45121527,151.0783194,Exact,Mt Owen Pty Limited,Glencore PLC [100.0%],2.53,Surface,,60.0,Bituminous,Thermal,13.3,0,0,0,0,0,0,0,0,0,0,0,0
M0043,Goonyella-Riverside Coal Mine, ,Australia,coal,Operating,-21.792321,147.962045,Exact,BHP Billiton Mitsubishi Alliance Pty Ltd,BHP Group Ltd [50.0%]; Mitsubishi Corp [50.0%],22.152,Surface,,60.0,Bituminous,Met,116.3,0,0,0,0,0,0,0,0,0,0,0,0
M0044,Gregory Crinum Coal Mines, ,Australia,coal,Operating,-23.1491384,148.3875874,Exact,Sojitz Blue Pty Ltd,Sojitz Corp [100.0%],2.389,Underground & Surface,,85.0,Bituminous,Met,17.6,0,0,0,0,0,0,0,0,0,0,0,0
M0044,Gregory Crinum Coal Mines, ,Australia,coal,Proposed,-23.1491384,148.3875874,Exact,Sojitz Blue Pty Ltd,Sojitz Corp [100.0%],,Underground & Surface,,85.0,Bituminous,Met,,0,0,0,0,0,0,0,0,0,0,0,0
M0045,Grosvenor Coal Mine, ,Australia,coal,Operating,-21.97420531,148.0106197,Exact,Grosvenor,Anglo American PLC [88.0%]; Nippon Steel Corp [5.0%],1.993,Underground,,500.0,Bituminous,Met,44.0,0,0,0,0,0,0,0,0,0,0,0,0
M0046,Hail Creek Coal Mine, ,Australia,coal,Operating,-21.484811,148.37,Exact,Hail Creek Coal Pty Ltd,Glencore PLC [84.7%]; Marubeni Corp [12.0%],10.784,Surface,210,60.0,Bituminous,Thermal & Met,56.6,0,0,0,0,0,0,0,0,0,0,0,0
M0047,Hillalong Coal Mine, ,Australia,coal,Proposed,-21.416653,148.31,Exact,Shandong Energy Group Co Ltd,Shandong Provincial People's Government State-owned Assets Supervision and Administration Commission [70.0%]; Shandong Guohui Investment Co Ltd [20.0%]; Shandong Caixin Asset Operation Co Ltd [10.0%],,Underground & Surface,,160.0,Bituminous,Thermal & Met,49.7,0,0,0,0,0,0,0,0,0,0,0,0
M0048,Hume Coal Mine, ,Australia,coal,Cancelled,-34.54081,150.284465,Exact,POSCO Holdings Inc,POSCO Holdings Inc [100%],,Underground,5,180.0,Bituminous,Thermal & Met,38.4,0,0,0,0,0,0,0,0,0,0,0,0
M0049,Hunter Valley North Coal Mine, ,Australia,coal,Operating,-32.4657844,150.9734981,Exact,Hunter Valley Operations,Yancoal Australia Ltd [51.0%]; Glencore PLC [49.0%],4.38,Surface,,60.0,Bituminous,Thermal & Met,23.0,0,0,0,0,0,0,0,0,0,0,0,0
M0050,Hunter Valley South Coal Mine, ,Australia,coal,Operating,-32.5245107,150.9819012,Exact,Hunter Valley Operations,Yancoal Australia Ltd [51.0%]; Glencore PLC [49.0%],7.55,Surface,,60.0,Bituminous,Thermal & Met,39.6,0,0,0,0,0,0,0,0,0,0,0,0
M0051,Hutton Coal Mine, ,Australia,coal,Cancelled,-25.951645,148.961201,Exact,Valiant Resources Ltd,Valiant Resources Ltd [100%],,Underground,1469,500.0,Bituminous,Met,529.9,0,0,0,0,0,0,0,0,0,0,0,0
M0051,Hutton Coal Mine, ,Australia,coal,Cancelled,-25.951645,148.961201,Exact,Valiant Resources Ltd,Valiant Resources Ltd [100%],,Underground,1469,500.0,Bituminous,Met,529.9,0,0,0,0,0,0,0,0,0,0,0,0
M0052,Ironbark No. 1 Coal Mine, ,Australia,coal,Operating,-21.97648262,148.2346531,Approximate,Fitzroy Australia Resources Pty Ltd,American Metals & Coal International Inc [50.0%]; ITOCHU Corp [50.0%],0.18,Underground,100,400.0,Bituminous,Thermal & Met,3.6,0,0,0,0,0,0,0,0,0,0,0,0
M0053,Isaac Downs Coal Mine, ,Australia,coal,Operating,-21.97936646,148.1290409,Exact,Stanmore IP South Pty Ltd,Stanmore Resources Ltd [100.0%],4.21,Surface,,60.0,Bituminous,Thermal & Met,22.1,0,0,0,0,0,0,0,0,0,0,0,0
M0054,Isaac Plains East Coal Mine, ,Australia,coal,Mothballed,-21.9718375,148.1132931,Exact,Stanmore Resources Ltd,Stanmore Resources Ltd [100%],2.38,Surface,,60.0,Bituminous,Met,12.5,0,0,0,0,0,0,0,0,0,0,0,0
M0055,Jax Coal Mine, ,Australia,coal,Operating,-20.713736,147.860166,Exact,Thiess,Thiess Group Holdings Pty Ltd [100.0%],2.151,Surface,,60.0,Bituminous,Thermal & Met,11.3,0,0,0,0,0,0,0,0,0,0,0,0
M0056,Jellinbah Coal Mine, ,Australia,coal,Operating,-23.406874,148.950644,Exact,Golding Contractors,NRW Holdings Ltd [100.0%],4.963,Surface,,30.0,Bituminous,Met,14.1,0,0,0,0,0,0,0,0,0,0,0,0
M0057,Karin Coal Mine, ,Australia,coal,Proposed,-23.058371,147.581142,Exact,Vitrinite,Vitrinite [100%],,Underground & Surface,,115.0,Bituminous,Met,16.0,0,0,0,0,0,0,0,0,0,0,0,0
M0058,Kestrel Coal Mine, ,Australia,coal,Operating,-23.236333,148.3583273,Exact,Kestrel Coal Resources,EMR Capital Pty Ltd [52.0%]; PT Adaro Energy Indonesia Tbk [48.0%],7.392,Underground,,250.0,Bituminous,Thermal & Met,115.9,0,0,0,0,0,0,0,0,0,0,0,0
M0059,Kogan Creek Coal Mine, ,Australia,coal,Operating,-26.9384276,150.7743816,Exact,Golding Contractors,NRW Holdings Ltd [100.0%],2.589,Surface,,50.0,Subbituminous,Thermal,3.1,0,0,0,0,0,0,0,0,0,0,0,0
M0060,Lake Vermont Coal Mine, ,Australia,coal,Proposed,-22.3894938,148.3769527,Approximate,Jellinbah Group Pty Ltd,Anglo American PLC [33.0%],,Underground & Surface,82.35,60.0,Bituminous,Thermal & Met,,0,0,0,0,0,0,0,0,0,0,0,0
M0060,Lake Vermont Coal Mine, ,Australia,coal,Operating,-22.4611726,148.4056045,Exact,Jellinbah Group Pty Ltd,Anglo American PLC [33.0%],11.156,Surface,8.2,30.0,Bituminous,Thermal & Met,31.8,0,0,0,0,0,0,0,0,0,0,0,0
M0062,Loy Yang Coal Mine, ,Australia,coal,Operating,-38.2347,146.564,Exact,AGL Loy Yang Pty Ltd,AGL Energy Ltd [100.0%],,Surface,12,200.0,Subbituminous,Thermal,105.0,0,0,0,0,0,0,0,0,0,0,0,0
M0063,Mandalong Coal Mine, ,Australia,coal,Proposed,-33.119111,151.461844,Exact,Centennial Mandalong Pty Ltd,Banpu PCL [100.0%],,Underground,,330.0,Subbituminous,Thermal,2.8,0,0,0,0,0,0,0,0,0,0,0,0
M0063,Mandalong Coal Mine, ,Australia,coal,Operating,-33.119111,151.461844,Exact,Centennial Mandalong Pty Ltd,Banpu PCL [100.0%],2.68,Underground,,300.0,Bituminous,Thermal,46.8,0,0,0,0,0,0,0,0,0,0,0,0
M0064,Mangoola Coal Mine, ,Australia,coal,Operating,-32.294922,150.706712,Exact,Mangoola Coal Operations Pty Ltd,Glencore PLC [100.0%],7.69,Surface,,50.0,Subbituminous,Thermal,9.2,0,0,0,0,0,0,0,0,0,0,0,0
M0064,Mangoola Coal Mine, ,Australia,coal,Proposed,-32.294922,150.706712,Exact,Mangoola Coal Operations Pty Ltd,Glencore PLC [100.0%],,Surface,,50.0,Subbituminous,Thermal,6.0,0,0,0,0,0,0,0,0,0,0,0,0
M0065,Maules Creek Coal Mine, ,Australia,coal,Operating,-30.562606,150.11498,Exact,Maules Creek Joint Venture,Whitehaven Coal Ltd [75.0%]; ITOCHU Corp [15.0%]; J-POWER Co Ltd [10.0%],9.372,Surface,16,300.0,Bituminous,Thermal & Met,153.2,0,0,0,0,0,0,0,0,0,0,0,0
M0066,Maxwell Coal Mine, ,Australia,coal,Operating,-32.433479,150.824735,Exact,Malabar Resources,Malabar Resources [100%],,Underground,,500.0,Bituminous,Met,176.6,0,0,0,0,0,0,0,0,0,0,0,0
M0067,Meandu Coal Mine, ,Australia,coal,Operating,-26.813543,151.911523,Exact,BUMA Australia,PT Bukit Makmur Mandiri Utama [100.0%],6.841,Surface,,50.0,Subbituminous,Thermal,8.2,0,0,0,0,0,0,0,0,0,0,0,0
M0067,Meandu Coal Mine, ,Australia,coal,Proposed,-26.813543,151.911523,Exact,TEC Coal Pty Ltd,PT Bukit Makmur Mandiri Utama [100.0%],,Surface,,50.0,Subbituminous,Thermal,6.4,0,0,0,0,0,0,0,0,0,0,0,0
M0068,Meteor Downs South Coal Mine (MDS), ,Australia,coal,Operating,-24.433867,148.385912,Approximate,Sojitz Blue Pty Ltd,Sojitz Corp [100.0%],1.389,Surface,,60.0,Bituminous,Thermal,7.3,0,0,0,0,0,0,0,0,0,0,0,0
M0069,Middlemount Coal Mine, ,Australia,coal,Operating,-22.848131,148.631626,Exact,Middlemount Coal Limited,Peabody Energy Corp [50.0%]; Yancoal Australia Ltd [50.0%],4.27,Surface,28,50.0,Subbituminous,Thermal & Met,5.1,0,0,0,0,0,0,0,0,0,0,0,0
M0071,Minyango Coking Coal Project, ,Australia,coal,Cancelled,-23.497583,148.807134,Approximate,QCoal,QCoal [100%],,Underground,,500.0,Bituminous,Thermal & Met,132.5,0,0,0,0,0,0,0,0,0,0,0,0
M0072,Moolarben Coal Mine, ,Australia,coal,Operating,-32.2828165,149.7591596,Exact,Moolarben Coal Operations,Yancoal Australia Ltd [95.0%]; Kores Australia Moolarben Coal Pty Ltd [5.0%],16.9,Underground & Surface,110,150.0,Subbituminous,Thermal,54.1,0,0,0,0,0,0,0,0,0,0,0,0
M0072,Moolarben Coal Mine, ,Australia,coal,Proposed,-32.2828165,149.7591596,Exact,Moolarben Coal Operations,Yancoal Australia Ltd [95.0%]; Kores Australia Moolarben Coal Pty Ltd [5.0%],,Surface,8.26,125.0,Subbituminous,Thermal,24.5,0,0,0,0,0,0,0,0,0,0,0,0
M0073,Moorlands Coal Mine, ,Australia,coal,Shelved,-22.816656,147.379922,Approximate,Cuesta Coal,Cuesta Coal [100%],,Surface,1000,50.0,Subbituminous,Thermal,2.3,0,0,0,0,0,0,0,0,0,0,0,0
M0074,Moranbah North Coal Mine, ,Australia,coal,Operating,-21.871331,147.956742,Exact,Moranbah North,Anglo American PLC [88.0%]; Nippon Steel Corp [5.0%]; Mitsui & Co Ltd [4.7%],4.124,Underground,67.61,200.0,Bituminous,Met,56.7,0,0,0,0,0,0,0,0,0,0,0,0
M0075,Mount Arthur Coal Mine, ,Australia,coal,Operating,-32.337022,150.856144,Exact,Hunter Valley Energy Coal,BHP Group Ltd [100.0%],19.82,Surface,64,60.0,Bituminous,Thermal,104.1,0,0,0,0,0,0,0,0,0,0,0,0
M0076,Mount Pleasant Coal Mine, ,Australia,coal,Proposed,-32.25591661,150.8499847,Exact,Integrated Energy Services Corp,Integrated Energy Services Corp [100%],,Surface,28,60.0,Bituminous,Thermal,34.1,0,0,0,0,0,0,0,0,0,0,0,0
M0076,Mount Pleasant Coal Mine, ,Australia,coal,Operating,-32.25591661,150.8499847,Exact,Mach Energy,Integrated Energy Services Corp [100%],9.99,Surface,28,60.0,Bituminous,Thermal,52.4,0,0,0,0,0,0,0,0,0,0,0,0
M0077,Mt Owen Coal Mine, ,Australia,coal,Operating,-32.4066392,151.085603,Exact,Mt Owen Pty Ltd,Glencore PLC [100.0%],7.4,Surface,,270.0,Bituminous,Thermal & Met,114.3,0,0,0,0,0,0,0,0,0,0,0,0
M0078,Mt Thorley Warkworth Coal Mine, ,Australia,coal,Proposed,-32.60700995,151.0901636,Approximate,Coal & Allied,Yancoal Australia Ltd [100.0%],,Underground,,500.0,Bituminous,Thermal & Met,132.5,0,0,0,0,0,0,0,0,0,0,0,0
M0078,Mt Thorley Warkworth Coal Mine, ,Australia,coal,Operating,-32.60700995,151.0901636,Exact,Coal & Allied,Yancoal Australia Ltd [100.0%],8.1,Surface,,60.0,Bituminous,Thermal & Met,42.5,0,0,0,0,0,0,0,0,0,0,0,0
M0079,Muswellbrook No. 2 Coal Mine, ,Australia,coal,Shelved,-32.244988,150.941392,Exact,Idemitsu Australia Resources Pty Ltd,Idemitsu Kosan Co Ltd [100.0%],,Surface,,60.0,Bituminous,,71.4,0,0,0,0,0,0,0,0,0,0,0,0
M0080,Myuna Coal Mine, ,Australia,coal,Operating,-33.060111,151.568738,Exact,Centennial Myuna Pty Ltd,Banpu PCL [100.0%],1.05,Underground,,120.0,Subbituminous,Thermal,2.9,0,0,0,0,0,0,0,0,0,0,0,0
M0081,Narrabri Coal Mine, ,Australia,coal,Proposed,-30.51820371,149.8976794,Exact,Narrabri Coal Joint Venture,Whitehaven Coal Ltd [77.5%]; J-POWER Co Ltd [7.5%]; Upper Horn Investments Ltd [7.5%]; Daewoo Co Ltd [5.0%],,Underground,10,380.0,Bituminous,Thermal,,0,0,0,0,0,0,0,0,0,0,0,0
M0081,Narrabri Coal Mine, ,Australia,coal,Operating,-30.51820371,149.8976794,Exact,Narrabri Coal Joint Venture,Whitehaven Coal Ltd [77.5%]; J-POWER Co Ltd [7.5%]; Upper Horn Investments Ltd [7.5%]; Daewoo Co Ltd [5.0%],4.795,Underground,10,200.0,Bituminous,Thermal,66.0,0,0,0,0,0,0,0,0,0,0,0,0
M0082,New Acland Coal Mine, ,Australia,coal,Proposed,-27.278281,151.710176,Exact,New Acland Coal Pty Limited,New Hope Corp Ltd [100.0%],,Surface,,60.0,Bituminous,Thermal,14.2,0,0,0,0,0,0,0,0,0,0,0,0
M0082,New Acland Coal Mine, ,Australia,coal,Operating,-27.278281,151.710176,Exact,New Acland Coal Pty Limited,New Hope Corp Ltd [100.0%],0.98,Surface,,50.0,Subbituminous,Thermal,1.2,0,0,0,0,0,0,0,0,0,0,0,0
M0083,Newlands Coal Mine, ,Australia,coal,Operating,-21.201424,147.887969,Exact,Newlands Coal Pty Ltd,Glencore PLC [100.0%],7.802,Surface,1578.65,60.0,Bituminous,Thermal & Met,41.0,0,0,0,0,0,0,0,0,0,0,0,0
M0084,Newstan Coal Mine, ,Australia,coal,Proposed,-32.978628,151.574319,Exact,Centennial Newstan Pty Ltd,Banpu PCL [100.0%],,Underground,,500.0,Bituminous,Thermal & Met,35.3,0,0,0,0,0,0,0,0,0,0,0,0
M0085,Oaky Creek Coal Mine, ,Australia,coal,Operating,-23.072256,148.483994,Exact,Glencore PLC,Glencore PLC [100%],5.769,Underground,,350.0,Bituminous,Met,108.9,0,0,0,0,0,0,0,0,0,0,0,0
M0086,Olive Downs Coal Mine, ,Australia,coal,Operating,-22.2204628,148.4033203,Approximate,Pembroke Resources,Pembroke Resources [100%],,Surface,,60.0,Bituminous,Met,78.8,0,0,0,0,0,0,0,0,0,0,0,0
M0087,Peak Downs Coal Mine, ,Australia,coal,Operating,-22.2548999,148.1796569,Exact,BHP Billiton Mitsubishi Alliance Pty Ltd,BHP Group Ltd [50.0%]; Mitsubishi Corp [50.0%],18.544,Surface,,60.0,Bituminous,Met,97.4,0,0,0,0,0,0,0,0,0,0,0,0
M0087,Peak Downs Coal Mine, ,Australia,coal,Proposed,-22.2548999,148.1796569,Exact,BHP Billiton Mitsubishi Alliance Pty Ltd,BHP Group Ltd [50.0%]; Mitsubishi Corp [50.0%],,Surface,,60.0,Bituminous,Met,47.3,0,0,0,0,0,0,0,0,0,0,0,0
M0088,Poitrel Coal Mine, ,Australia,coal,Operating,-22.06650421,148.2551254,Exact,Stanmore SMC Pty Ltd,Stanmore Resources Ltd [100.0%],5.422,Surface,,60.0,Bituminous,Met,28.5,0,0,0,0,0,0,0,0,0,0,0,0
M0089,Premier Coal Mine, ,Australia,coal,Operating,-33.391728,116.286509,Exact,Yancoal Australia Ltd,Yancoal Australia Ltd [100%],2.8,Surface,130,50.0,Subbituminous,Thermal & Met,3.4,0,0,0,0,0,0,0,0,0,0,0,0
M0090,Range Coal Project, ,Australia,coal,Cancelled,-26.230392,150.272257,Exact,Stanmore Resources Ltd,Stanmore Resources Ltd [100%],,Surface,52.26,60.0,Bituminous,Thermal,26.3,0,0,0,0,0,0,0,0,0,0,0,0
M0091,Ravensworth Coal Mine, ,Australia,coal,Operating,-32.4426478,151.0063967,Exact,Ravensworth Operations Pty Limited,Glencore PLC [100.0%],12.8,Surface,,60.0,Bituminous,Thermal,67.2,0,0,0,0,0,0,0,0,0,0,0,0
M0092,Red Hill Coal Project, ,Australia,coal,Shelved,-21.764098,148.005592,Exact,BHP Billiton Mitsubishi Alliance Pty Ltd,BHP Group Ltd [50.0%]; Mitsubishi Corp [50.0%],,Underground,,500.0,Bituminous,Met,309.1,0,0,0,0,0,0,0,0,0,0,0,0
M0093,Rix Creek Coal Mine, ,Australia,coal,Operating,-32.52393559,151.1208768,Exact,Bloomfield Collieries Pty Ltd,Bloomfield Group [100.0%],5.15,Underground & Surface,,60.0,Bituminous,Thermal & Met,27.0,0,0,0,0,0,0,0,0,0,0,0,0
M0093,Rix Creek Coal Mine, ,Australia,coal,Proposed,-32.52393559,151.1208768,Exact,Bloomfield Collieries Pty Ltd,Bloomfield Group [100.0%],,Underground & Surface,,60.0,Bituminous,Thermal & Met,,0,0,0,0,0,0,0,0,0,0,0,0
M0094,Rolleston Coal Mine, ,Australia,coal,Operating,-24.456609,148.404902,Exact,Rolleston Coal Holdings Pty Ltd,Glencore PLC,13.02,Surface,363,60.0,Bituminous,Thermal,68.4,0,0,0,0,0,0,0,0,0,0,0,0
M0094,Rolleston Coal Mine, ,Australia,coal,Shelved,-24.456609,148.404902,Exact,Rolleston Coal Holdings Pty Ltd,Glencore PLC,,Surface,5.6,60.0,Bituminous,Thermal,26.3,0,0,0,0,0,0,0,0,0,0,0,0
M0095,Russell Vale Colliery, ,Australia,coal,Mothballed,-34.35566,150.89169,Exact,Wollongong Resources Pty Ltd,Jindal Group [100.0%],,Underground,6.4,500.0,Bituminous,Met,16.3,0,0,0,0,0,0,0,0,0,0,0,0
M0096,Saraji Coal Mine, ,Australia,coal,Operating,-22.371371,148.299848,Exact,BHP Billiton Mitsubishi Alliance Pty Ltd,BHP Group Ltd [50.0%]; Mitsubishi Corp [50.0%],13.995,Surface,120,60.0,Bituminous,Thermal & Met,73.5,0,0,0,0,0,0,0,0,0,0,0,0
M0097,Saraji East Coal Mine, ,Australia,coal,Proposed,-22.371371,148.299848,Exact,BHP Billiton Mitsubishi Alliance Pty Ltd,BHP Group Ltd [50.0%]; Mitsubishi Corp [50.0%],,Underground,,35.0,Bituminous,Met,18.8,0,0,0,0,0,0,0,0,0,0,0,0
M0098,Sonoma Coal Mine, ,Australia,coal,Operating,-20.62,147.86,Exact,QCoal,QCoal [100%],0.83,Surface,,60.0,Bituminous,Thermal & Met,4.4,0,0,0,0,0,0,0,0,0,0,0,0
M0099,South Walker Creek Coal Mine, ,Australia,coal,Operating,-21.753393,148.443289,Exact,Stanmore SMC Pty Ltd,Stanmore Resources Ltd [100.0%],8.007,Surface,,60.0,Bituminous,Met,42.0,0,0,0,0,0,0,0,0,0,0,0,0
M0101,Springsure Creek Coal Project, ,Australia,coal,Shelved,-24.008602,148.372046,Approximate,Adamelia Resources,Adamelia Resources [100%],,Underground,107,500.0,Bituminous,Thermal,110.4,0,0,0,0,0,0,0,0,0,0,0,0
M0101,Springsure Creek Coal Project, ,Australia,coal,Shelved,-24.008602,148.372046,Approximate,Adamelia Resources,Adamelia Resources [100%],,Underground,107,500.0,Bituminous,Thermal,132.5,0,0,0,0,0,0,0,0,0,0,0,0
M0102,Springvale Coal Mine, ,Australia,coal,Operating,-33.4006,150.105627,Exact,Centennial Springvale Pty Ltd; Boulder Mining Pty Ltd,Banpu PCL [100.0%],2.32,Underground,,500.0,Subbituminous,Thermal,16.7,0,0,0,0,0,0,0,0,0,0,0,0
M0103,Tahmoor Coal Mine, ,Australia,coal,Operating,-34.2532732,150.5753104,Exact,Tahmoor Coal,SIMEC Mining Pty Ltd,,Underground,,500.0,Bituminous,Met,88.3,0,0,0,0,0,0,0,0,0,0,0,0
M0105,Tarrawonga Coal Mine, ,Australia,coal,Operating,-30.639584,150.167277,Exact,Tarrawonga Coal Pty Ltd,Whitehaven Coal Ltd [100.0%],1.67,Surface,,180.0,Subbituminous,Thermal & Met,5.8,0,0,0,0,0,0,0,0,0,0,0,0
M0106,Ulan Complex Coal Mine, ,Australia,coal,Operating,-32.242539,149.749697,Exact,Ulan Coal Mines Ltd,Glencore PLC [100.0%],10.79,Underground,137,225.0,Bituminous,Thermal,157.1,0,0,0,0,0,0,0,0,0,0,0,0
M0107,United Wambo Coal Mine, ,Australia,coal,Operating,-32.549369,150.984787,Exact,United Collieries and Wambo Coal,Peabody Energy Corp [50.0%]; Glencore PLC,5.67,Surface,,60.0,Bituminous,Thermal & Met,29.8,0,0,0,0,0,0,0,0,0,0,0,0
M0108,Valeria Coal Mine, ,Australia,coal,Cancelled,-23.470142,148.033559,Approximate,Valeria Coal Holdings Pty Ltd,Glencore PLC [100.0%],,Surface,283,60.0,Bituminous,Thermal & Met,105.0,0,0,0,0,0,0,0,0,0,0,0,0
M0109,Valeria South Coal Mine, ,Australia,coal,Cancelled,-23.3407382,147.85037,Approximate,Valeria Coal Holdings Pty Ltd,Glencore PLC [100.0%],,Surface,,60.0,Bituminous,Thermal & Met,7.4,0,0,0,0,0,0,0,0,0,0,0,0
M0110,Vickery Coal Mine, ,Australia,coal,Proposed,-30.76467,150.17894,Exact,Vickery Coal Pty Ltd,Whitehaven Coal Ltd [100.0%],,Surface,30,250.0,Bituminous,Met,66.2,0,0,0,0,0,0,0,0,0,0,0,0
M0110,Vickery Coal Mine, ,Australia,coal,Proposed,-30.76467,150.17894,Exact,Vickery Coal Pty Ltd,Whitehaven Coal Ltd [100.0%],,Surface,30,250.0,Bituminous,Met,80.9,0,0,0,0,0,0,0,0,0,0,0,0
M0111,Wallarah 2 Coal Project, ,Australia,coal,Shelved,-33.223341,151.390511,Exact,Wyong Areas Coal Joint Venture,Korea Mine Rehabilitation & Mineral Resources Corp [82.2%]; Centennial Wallarah Pty Ltd [5.0%],,Underground,,255.0,Subbituminous,Thermal,18.6,0,0,0,0,0,0,0,0,0,0,0,0
M0112,Walton Coal Mine, ,Australia,coal,Cancelled,-23.58232637,149.2181492,Approximate,Walton Coal,Walton Coal [100%],,Surface,,60.0,Bituminous,Met,8.4,0,0,0,0,0,0,0,0,0,0,0,0
M0113,Wambo Underground Coal Mine, ,Australia,coal,Operating,-32.575524,151.006688,Exact,Wambo Coal Pty Ltd,Peabody Energy Corp [75.0%]; Sumiseki Holdings Inc,2,Underground,,500.0,Bituminous,Thermal & Met,44.2,0,0,0,0,0,0,0,0,0,0,0,0
M0114,Wards Well Coal Mine, ,Australia,coal,Proposed,-21.598813,147.958654,Exact,Stanmore Resources Ltd,Stanmore Resources Ltd [100%],,Underground,,500.0,Bituminous,Met,110.4,0,0,0,0,0,0,0,0,0,0,0,0
M0115,Watermark Coal Mine, ,Australia,coal,Cancelled,-31.226757,150.438691,Approximate,Shenhua Group,China Energy Investment Corp [100.0%],,Surface,40.84,60.0,Bituminous,Thermal,31.5,0,0,0,0,0,0,0,0,0,0,0,0
M0116,Werris Creek Coal Mine, ,Australia,coal,Operating,-31.40698,150.6395,Exact,Werris Creek Coal Pty Ltd,Whitehaven Coal Ltd [100.0%],1.67,Surface,,190.0,Bituminous,Thermal & Met,20.8,0,0,0,0,0,0,0,0,0,0,0,0
M0117,Wilpinjong Coal Mine, ,Australia,coal,Operating,-32.332,149.885,Exact,Wilpinjong Coal Pty Ltd,Peabody Energy Corp,13.28,Surface,,60.0,Bituminous,Thermal,69.7,0,0,0,0,0,0,0,0,0,0,0,0
M0117,Wilpinjong Coal Mine, ,Australia,coal,Proposed,-32.319056,149.867537,Exact,Wilpinjong Coal Pty Ltd,Peabody Energy Corp,,Surface,8,60.0,Bituminous,Thermal,5.3,0,0,0,0,0,0,0,0,0,0,0,0
M0118,Wilton and Fairhill Coal Projects, ,Australia,coal,Proposed,-23.41261,148.576971,Approximate,Futura Resources [50.00%]; Sojitz Development Pty Ltd [50.00%],Futura Resources [100%],,Surface,,60.0,Bituminous,Met,13.7,0,0,0,0,0,0,0,0,0,0,0,0
M0119,Winchester South Coal Mine, ,Australia,coal,Proposed,-22.1508629,148.1757381,Exact,Whitehaven WS Pty Ltd,Whitehaven Coal Ltd [100.0%],,Surface,,160.0,Bituminous,Met,166.5,0,0,0,0,0,0,0,0,0,0,0,0
M0120,Yallourn Coal Mine, ,Australia,coal,Operating,-38.195064,146.360402,Exact,EnergyAustralia Pty Ltd,CLP Holdings Ltd [100.0%],14.08,Surface,140,133.0,Lignite,Thermal,38.0,0,0,0,0,0,0,0,0,0,0,0,0
M0121,Yarrabee Coal Mine, ,Australia,coal,Operating,-23.317678,149.026371,Exact,Yanzhou Coal Mining Co,Shandong Energy Group Co Ltd [70.0%]; Shandong Guohui Investment Co Ltd [20.0%]; Shandong Caixin Asset Operation Co Ltd [10.0%],2.95,Surface,,60.0,Bituminous,Thermal & Met,15.5,0,0,0,0,0,0,0,0,0,0,0,0
M0122,Barapukuria Coal Mine, ,Bangladesh,coal,Operating,25.547269,88.96062,Exact,Petrobangla,Petrobangla [100%],0.75,Underground,,328.0,Bituminous,Thermal,13.7,0,0,0,0,0,0,0,0,0,0,0,0
M0122,Barapukuria Coal Mine, ,Bangladesh,coal,Shelved,25.547269,88.96062,Exact,Petrobangla,Petrobangla [100%],,Underground,,328.0,Bituminous,Thermal,9.1,0,0,0,0,0,0,0,0,0,0,0,0
M0123,Dighipara Coal Mine, ,Bangladesh,coal,Proposed,25.416667,89.083333,Exact,Petrobangla,Petrobangla [100%],,Surface,5.03,60.0,Bituminous,Thermal,15.8,0,0,0,0,0,0,0,0,0,0,0,0
M0124,Phulbari Coal Mine, ,Bangladesh,coal,Proposed,25.9468733,89.5532405,Approximate,Global Coal Management Resources [GCM]; PowerChina,GCM Resources PLC [100.0%],,Surface,,60.0,Bituminous,Thermal,84.0,0,0,0,0,0,0,0,0,0,0,0,0
M0125,Vrtliste Coal Mine, ,Bosnia and Herzegovina,coal,Operating,44.14001979,18.09803137,Exact,RMU Kakanj doo,Elektroprivreda BiH dd [90.4%]; others [9.6%],0.76,Surface,,50.0,Subbituminous,Thermal,0.9,0,0,0,0,0,0,0,0,0,0,0,0
M0126,Kreka Coal Mine, ,Bosnia and Herzegovina,coal,Operating,44.52,18.606111,Approximate,RMU Kreka doo,Elektroprivreda BiH dd [90.4%]; others [9.6%],1.29,Underground & Surface,,50.0,Lignite,Thermal,1.5,0,0,0,0,0,0,0,0,0,0,0,0
M0127,Masama Coal Mine, ,Botswana,coal,Operating,-24.053219,25.8876081,Exact,Minergy Ltd,Minergy Ltd [100%],1.2,Underground & Surface,67,130.0,Bituminous,Thermal,12.3,0,0,0,0,0,0,0,0,0,0,0,0
M0128,Mmamabula Coal Mine, ,Botswana,coal,Proposed,-23.609295,26.774952,Approximate,Maatla Resources,Maatla Resources [100%],,Underground & Surface,43,60.0,Bituminous,Thermal,7.3,0,0,0,0,0,0,0,0,0,0,0,0
M0130,Guaíba Coal Mine, ,Brazil,coal,Shelved,-30.015319,-51.532337,Approximate,Copelmi Mineração Ltda,Copelmi Mineração Ltda [100%],,Surface,,50.0,Subbituminous,Thermal,8.6,0,0,0,0,0,0,0,0,0,0,0,0
M0131,Butiá Leste Mine, ,Brazil,coal,Operating,-30.102394,-51.938235,Exact,Copelmi Mineração Ltda,Copelmi Mineração Ltda [100%],1.02,Surface,,50.0,Subbituminous,Thermal,1.2,0,0,0,0,0,0,0,0,0,0,0,0
M0132,Seival Coal Mine, ,Brazil,coal,Operating,-31.449159,-53.707527,Exact,Copelmi Mineração Ltda,Copelmi Mineração Ltda [100%],2.12,Surface,,50.0,Subbituminous,Thermal,2.5,0,0,0,0,0,0,0,0,0,0,0,0
M0134,Han Seng Coal Mine, ,Cambodia,coal,Operating,14.1857983,104.3192826,Approximate,Han Seng Coal Mine Co,Han Seng Coal Mine Co [100%],0.06,Underground,,494.0,Lignite,Thermal,0.4,0,0,0,0,0,0,0,0,0,0,0,0
M0135,Aries Coal Mine, ,Canada,coal,Cancelled,52.400401,-114.830002,Approximate,Ram River Coal,Ram River Coal [100%],,Surface,200,60.0,Bituminous,Met,21.0,0,0,0,0,0,0,0,0,0,0,0,0
M0136,Bingay Coal Mine, ,Canada,coal,Cancelled,50.197546,-114.975588,Exact,Centermount,Centermount [100%],,Surface,4.2,60.0,Bituminous,Met,5.3,0,0,0,0,0,0,0,0,0,0,0,0
M0137,Brule Coal Mine, ,Canada,coal,Operating,55.38667,-121.82,Exact,ERP Compliant Fuels,ERP Compliant Fuels [100%],1.65,Surface,35.24,60.0,Bituminous,Thermal & Met,8.7,0,0,0,0,0,0,0,0,0,0,0,0
M0138,Coal Valley Coal Mine, ,Canada,coal,Operating,53.0518755,-116.7982727,Approximate,Prairie Mines and Royalty LLC,Westmoreland Coal Co [100.0%],1.92,Surface,206.6,60.0,Bituminous,Thermal,10.1,0,0,0,0,0,0,0,0,0,0,0,0
M0138,Robb Trend Coal Mine Expansion Project, ,Canada,coal,Cancelled,53.0518755,-116.7982727,Approximate,Prairie Mines and Royalty LLC,Westmoreland Coal Co [100.0%],,Surface,57.28,50.0,Subbituminous,Thermal,,0,0,0,0,0,0,0,0,0,0,0,0
M0139,Crown Mountain Coal Project, ,Canada,coal,Proposed,49.8066666,-114.7266666,Approximate,NWP Coal Canada,Jameson Resources [77.9%]; Bathurst Resources Ltd [22.1%],,Surface,12.8,60.0,Bituminous,Met,10.0,0,0,0,0,0,0,0,0,0,0,0,0
M0140,Elkview Coal Mine, ,Canada,coal,Operating,49.742507,-114.823906,Exact,Teck Coal Partnership,Teck Resources Ltd [100.0%],5.2,Surface,124,60.0,Bituminous,Met,27.3,0,0,0,0,0,0,0,0,0,0,0,0
M0141,Estevan Coal Mine, ,Canada,coal,Operating,49.092848,-102.886072,Exact,Prairie Mines and Royalty LLC,Westmoreland Coal Co [100.0%],4.34,Surface,203,50.0,Subbituminous,Thermal,5.2,0,0,0,0,0,0,0,0,0,0,0,0
M0142,Fording River Operations, ,Canada,coal,Operating,50.19284,-114.86473,Exact,Teck Coal Partnership,Teck Resources Ltd [100.0%],7.99,Surface,198,60.0,Bituminous,Met,42.0,0,0,0,0,0,0,0,0,0,0,0,0
M0143,Genesee Coal Mine, ,Canada,coal,Operating,53.314555,-114.286386,Exact,Capital Power LP; Westmoreland Mining LLC,Capital Power LP [100%],5,Surface,74,50.0,Subbituminous,Thermal,6.0,0,0,0,0,0,0,0,0,0,0,0,0
M0144,Gething Coal Mine, ,Canada,coal,Shelved,56.038803,-122.305087,Exact,CKD Mines,CKD Mines [100%],,Underground,,494.0,Bituminous,Met,65.8,0,0,0,0,0,0,0,0,0,0,0,0
M0145,Grassy Mountain Coal Project, ,Canada,coal,Cancelled,49.68924,-114.41896,Approximate,Northback Holdings,Hancock Corp [100.0%],,Surface,15,430.0,Bituminous,Met,87.8,0,0,0,0,0,0,0,0,0,0,0,0
M0146,Greenhills Coal Mine, ,Canada,coal,Operating,50.20028,-115.0083,Exact,Teck Coal Partnership; POSCO Canada Ltd,Teck Resources Ltd [100.0%],6.27,Surface,126,60.0,Bituminous,Met,32.9,0,0,0,0,0,0,0,0,0,0,0,0
M0148,Huguenot Surface Coal Mine, ,Canada,coal,Shelved,55.000742,-120.829716,Approximate,Colonial Coal International Corp,Colonial Coal International Corp [100%],,Surface,75.92,60.0,Bituminous,Met,14.2,0,0,0,0,0,0,0,0,0,0,0,0
M0149,Huguenot Underground Coal Mine, ,Canada,coal,Shelved,55.000742,-120.829716,Approximate,Colonial Coal International Corp,Colonial Coal International Corp [100%],,Underground,75.92,494.0,Bituminous,Met,6.6,0,0,0,0,0,0,0,0,0,0,0,0
M0150,Line Creek Coal Mine, ,Canada,coal,Operating,49.917,-114.776,Exact,Teck Coal Partnership,Teck Resources Ltd [100.0%],3.24,Surface,82,60.0,Bituminous,Thermal & Met,17.0,0,0,0,0,0,0,0,0,0,0,0,0
M0151,Michel Coal Project, ,Canada,coal,Proposed,49.729272,-114.867851,Exact,North Coal,North Coal [100%],,Surface,140,60.0,Bituminous,Met,10.5,0,0,0,0,0,0,0,0,0,0,0,0
M0152,Murray River Coal Mine, ,Canada,coal,Proposed,55.141319,-121.0796155,Approximate,HD Mining,HD Mining International [100.0%],,Underground,160,800.0,Bituminous,Met,125.2,0,0,0,0,0,0,0,0,0,0,0,0
M0154,Poplar River Coal Mine, ,Canada,coal,Operating,49.2127113,-105.4714202,Exact,Prairie Mines and Royalty LLC,Westmoreland Coal Co [100.0%],3.3,Surface,74.88,50.0,Lignite,Thermal,4.0,0,0,0,0,0,0,0,0,0,0,0,0
M0156,Sukunka Coal Mine, ,Canada,coal,Cancelled,55.1964,-121.569,Approximate,Glencore PLC,Glencore PLC [100%],,Underground & Surface,80.56,60.0,Bituminous,Met,16.8,0,0,0,0,0,0,0,0,0,0,0,0
M0157,Tent Mountain Coal Mine, ,Canada,coal,Cancelled,49.5542903,-114.707508,Exact,Evolve Power Ltd,Evolve Power Ltd [100%],,Surface,,60.0,Bituminous,Met,5.8,0,0,0,0,0,0,0,0,0,0,0,0
M0158,Vista Coal Mine, ,Canada,coal,Operating,53.3961117,-117.6478052,Exact,Coalspur Mines Ltd,VE Holdings LLC [100.0%],6.95,Surface,99.84,60.0,Bituminous,Thermal,36.5,0,0,0,0,0,0,0,0,0,0,0,0
M0158,Vista Coal Mine, ,Canada,coal,Proposed,53.3961117,-117.6478052,Approximate,Coalspur Mines Ltd,VE Holdings LLC [100.0%],,Surface,6.29,50.0,Subbituminous,Thermal,5.0,0,0,0,0,0,0,0,0,0,0,0,0
M0158,Vista Coal Mine, ,Canada,coal,Proposed,53.3961117,-117.6478052,Approximate,Coalspur Mines Ltd,VE Holdings LLC [100.0%],,Surface,,50.0,Subbituminous,Thermal,,0,0,0,0,0,0,0,0,0,0,0,0
M0159,Willow Creek Coal Mine, ,Canada,coal,Operating,55.6218806,-122.2174581,Exact,ERP Compliant Fuels,ERP Compliant Fuels [100%],0.98,Surface,,50.0,Bituminous,Thermal & Met,4.4,0,0,0,0,0,0,0,0,0,0,0,0
M0160,Wolverine Coal Mine, ,Canada,coal,Operating,55.0608535,-121.2530692,Exact,ERP Compliant Fuels,ERP Compliant Fuels [100%],1.01,Surface,10.47,60.0,Bituminous,Met,5.3,0,0,0,0,0,0,0,0,0,0,0,0
M0161,Wolverine-Hermann Coal Mine, ,Canada,coal,Proposed,55.0608535,-121.2530692,Approximate,ERP Compliant Fuels,ERP Compliant Fuels [100%],,Surface,,60.0,Bituminous,Met,5.3,0,0,0,0,0,0,0,0,0,0,0,0
M0163,Aimin Wendu Coal Mine, ,China,coal,Proposed,43.7025,120.771111,Exact,Inner Mongolia Pingmei Ar Khorchin Banner Coal Mine Company,Hebei Qian'an Chemical Company,,Underground,11.98,350.0,Lignite,Thermal,5.3,0,0,0,0,0,0,0,0,0,0,0,0
M0164,Anhui Banji Coal Mine, ,China,coal,Operating,32.899945,116.228774,Exact,China Coal Xinji Energy,China Coal [30%]; China Energy [5%]; Jingneng Power [1%]; Beijing Energy [6%]; Guohua Industry [3%]; Huainan Industial Development Group [7%]; China Shipping [5%],,Underground,33.6,456.0,Bituminous,Met,47.5,0,0,0,0,0,0,0,0,0,0,0,0
M0165,Anjialing Open-Pit Mine, ,China,coal,Operating,39.449488,112.360569,Exact,China Coal Pingshuo Group,China Coal [57%]; HKSCC Nominees Limited [30%]; Others [13%],,Surface,,60.0,Bituminous,Thermal,78.1,0,0,0,0,0,0,0,0,0,0,0,0
M0166,Antaibao Surface Mine, ,China,coal,Operating,39.474754,112.311939,Exact,China Coal Pingshuo Group,China Coal [57%]; HKSCC Nominees Limited [30%]; Others [13%],,Surface,,60.0,Bituminous,,78.1,0,0,0,0,0,0,0,0,0,0,0,0
M0167,Ba Leng Coal Mine, ,China,coal,Proposed,38.474786,106.668299,Approximate,Etuoke Qianqi Hengyuan Investment Industrial Company,Jinneng Group,,Underground,82.2,456.0,Bituminous,Thermal,126.7,0,0,0,0,0,0,0,0,0,0,0,0
M0168,Baijia Haizi Coal Mine, ,China,coal,Proposed,38.356604,108.950826,Approximate,Inner Mongolia Ordos Lianhai Coal Industry Company,Inner Mongolia Huineng Coal and Electricity Group [60%]; Inner Mongolia Ordos Investment Holding Group [38%]; Bayannaoer Zhuoyue Building Materials Company [1%],,Underground,169.19,456.0,Bituminous,Thermal,237.5,0,0,0,0,0,0,0,0,0,0,0,0
M0169,Bailongshan No. 1 Coal Mine, ,China,coal,Proposed,25.166667,104.566667,Exact,Huaneng Diandong Mining Company,China Huaneng [34%]; Shanghua Investment Company [8%]; HKSCC Nominees Limited [25%]; HeBei Construction & Investment Group [3%]; Others [30%],,Underground,17.85,456.0,Anthracite,Thermal,84.3,0,0,0,0,0,0,0,0,0,0,0,0
M0170,Baishihu Surface Mine, ,China,coal,Operating,43.902992,94.665857,Exact,Yiwu Gunaghui Mining Company,Guanghui Energy Holding Company [94%]; Xinjiang Guanghui Industry Investment Group [5%]; Xinjiang Production and Construction Corps [1%],,Surface,33.09,30.0,Bituminous,Thermal,38.2,0,0,0,0,0,1,1,0,0,0,0,0
M0171,Baishupo Coal Mine, ,China,coal,Proposed,39.725303,111.335131,Exact,Zhungeer Banner Baishupo Coal Company,Zhangjiagang Free Trade Zone Liyuan Energy Investment [11%]; Shanxi Coking Coal Group [7%]; Shanxi Financial Investment Holding Group [9%]; Mizuki Hongdao [Beijing] Asset Management Company [6%]; Inner Mongolia Jinyue Energy Group [8%]; Others [59%],,Underground,5.71,456.0,Bituminous,Thermal,19.0,0,0,0,0,0,0,0,0,0,0,0,0
M0172,Baiyanghe Coal Mine, ,China,coal,Proposed,44.048539,88.529268,Exact,Xinjiang Mingji Energy Company,Shandong Lutai Holding Group [75%]; Ming Kei Energy Investment Company [25%],,Underground,20.57,456.0,Bituminous,Thermal,19.0,0,0,0,0,0,0,0,0,0,0,0,0
M0173,Baiyinhua Haizhou No. 4 Surface Mine, ,China,coal,Operating,44.947927,118.666974,Exact,Inner Mongolia Baiyinhua Haizhou Surface Mine Company,Liaoning Energy Industry Holding Group [83%]; China Huaneng [5%],,Surface,25,456.0,Lignite,Thermal,10.0,0,0,0,0,0,0,0,0,0,0,0,1
M0173,Baiyinhua Haizhou No. 4 Surface Mine, ,China,coal,Operating,44.947927,118.666974,Exact,Inner Mongolia Baiyinhua Haizhou Surface Mine Company,Liaoning Energy Industry Holding Group [83%]; China Huaneng [5%],,Underground,,456.0,Lignite,Thermal,40.9,0,0,0,0,0,0,0,0,0,0,0,1
M0174,Baiyinhua No. 2 Surface Mine, ,China,coal,Operating,44.809523,118.500466,Exact,Inner Mongolia Xilin Gol Baiyinhua Coal and Electricity Company,State Power Investment Corporation [SPIC] [91.2%]; Huolinhe Coal Industry Group [8%]; Others [1%],,Surface,25.81,272.0,Lignite,Thermal,51.9,0,0,0,0,0,0,0,0,0,0,0,1
M0175,Baiyinhua No.1 Surface Mine, ,China,coal,Operating,44.786827,118.455621,Exact,Inner Mongolia Pingxi Baiyinhua Coal Industry Group,China Energy [51%]; China Cinda Asset Management [32%]; Chifeng City Economic and Information Commission [17%],,Surface,19.92,50.0,Lignite,Thermal,10.7,0,0,0,0,0,0,0,0,0,0,0,1
M0176,Baiyinhua No.3 Surface Mine, ,China,coal,Operating,44.897826,118.615908,Exact,Inner Mongolia Baiyinhua Mengdong Surface Coal Industry Company,State Power Investment Corporation [SPIC] [43%]; Huolinhe Coal Industry Group [23%]; Industrial and Commercial Bank of China [33%],,Surface,46.57,183.0,Lignite,Thermal,51.3,0,0,0,0,0,0,0,0,0,0,0,1
M0177,Balasu Coal Mine, ,China,coal,Operating,38.265057,109.208519,Exact,Shaanxi Yanchang Petroleum and Balasu Coal Industry Company,Shaanxi Yanchang Petroleum Group 84%; Others 16%,,Underground,300.4,456.0,Bituminous,Thermal,237.5,0,0,0,0,0,0,0,0,0,0,0,0
M0178,Baode Coal Mine, ,China,coal,Operating,38.950871,111.089441,Exact,China Shenhua Energy,China Energy [69%]; HKSCC Nominees Limited [17%]; Others [14%],,Underground,55.9,456.0,Bituminous,Thermal,79.2,0,0,0,0,0,0,0,0,0,0,0,0
M0178,Baode Coal Mine, ,China,coal,Operating,38.950871,111.089441,Exact,China Shenhua Energy,China Energy [69%]; HKSCC Nominees Limited [17%]; Others [14%],,Underground,55.9,456.0,Bituminous,Thermal,126.7,0,0,0,0,0,0,0,0,0,0,0,0
M0179,Baodian Coal Mine, ,China,coal,Operating,35.427152,116.836876,Exact,Yanzhou Coal Mining Company,Shandong Energy [46%]; HKSCC Nominees Limited [39%]; Others [15%],,Underground,37.01,456.0,Bituminous,Thermal,95.0,0,0,0,0,0,0,0,0,0,0,0,0
M0180,Baoqing Chaoyang Surface Coal Mine, ,China,coal,Proposed,46.271618,132.573834,Exact,Guoneng Baoqing Coal Electricity Chemical Company,China Energy [90%]; Baoqing County State Owned Esset Management Company [10%],,Surface,76.8,50.0,Lignite,Thermal,9.8,0,0,0,0,0,0,0,0,0,0,0,0
M0181,Beishan Coal Mine, ,China,coal,Operating,44.538798,90.366812,Exact,Xinjiang Beishan Mining Company,Xinjiang Beishan Huiyuan Investment Company [80%]; Xinjiang Agricultural Sixth Division Aluminum Company [20%],,Surface,7.718,60.0,Bituminous,Thermal,15.6,0,0,0,0,0,0,0,0,0,0,0,0
M0182,Beixinyao Coal Mine, ,China,coal,Operating,39.106574,112.341358,Exact,Datong Group Dongzhouyao Coal Company,Shanxi State-Owned Capital Investment Operation Company [65%]; China Cinda Asset Management Company [30%]; Shanxi Coal Transportation and Sales Group [2%]; Shanxi Shuozhou Mining Company; Datong City State-Owned Assets Supervision and Administration Commission [1%]; Xinzhou Coal Industry Bureau [2%],,Underground,53.3,456.0,Bituminous,Thermal,63.3,0,0,0,0,0,0,0,0,0,0,0,0
M0183,Beskuduk Coal Mine, ,China,coal,Operating,44.174995,91.739878,Approximate,Hami Hexiang Industry and Trade Company,China Coal [46%]; Ningbo Hesheng Group [20%]; Xinjiang Coal Trading Center Company [10%],,Surface,15.02,50.0,Subbituminous,Thermal,1.8,0,0,0,0,1,1,1,0,0,0,0,0
M0184,Boli Coal Mine, ,China,coal,Proposed,37.427284,113.576734,Exact,Yangquan Coal Industry Group Boli Coal Mine Company,Shanxi Huayang Group New Energy Company [70%]; Shanxi Chuangrei New Energy Investment Company [30%],,Underground,107.53,456.0,Anthracite,Thermal,140.5,0,0,0,0,0,0,0,0,0,0,0,0
M0185,Boqizhang Coal Mine, ,China,coal,Operating,39.808962,112.845462,Exact,Shanxi Coal Transportation and Sales Group Boqizhang Coal Industry Company,Jinneng Group [26%]; China Energy [25%]; Zuoyun Kaihao Industrial Company [49%],,Underground,6.37,456.0,Bituminous,,19.0,0,0,0,0,0,0,0,0,0,0,0,0
M0186,Buertai Coal Mine, ,China,coal,Operating,39.495115,109.973302,Exact,China Shenhua Energy Company,China Energy [69%]; HKSCC Nominees Limited [17%]; Others [14%],,Underground,192.6,456.0,Bituminous,Thermal,316.6,0,0,0,0,0,0,0,0,0,0,0,0
M0187,Buliangou Coal Mine, ,China,coal,Operating,40.012229,111.336127,Exact,Inner Mongolia Mengtai Buliangou Coal Industry Company,Inner Mongolia Mengtai Group [49%]; China Huadian [35%]; Others [16%],,Underground,33.21,456.0,Bituminous,Thermal,285.0,0,0,0,0,0,0,0,0,0,0,0,0
M0188,Buzhaoba Surface Mine, ,China,coal,Operating,23.800855,103.180577,Exact,Yunnan Xiaolongtan Mining Administration,Yunnan Xiaolongtan Mining Administration,,Surface,,50.0,Lignite,Thermal,11.6,0,0,0,0,0,0,0,0,0,0,0,0
M0189,Chagannur No.1 Coal Mine, ,China,coal,Proposed,43.553884,115.167883,Exact,Xilingol Fengfeng Energy Company,Jizhong Energy Group [48%]; China Huarong Asset Management Company [2%]; China Energy Investment Corporation [49%]; Others [1%],,Underground,83.4,456.0,Lignite,Thermal,25.6,0,0,0,0,0,0,0,0,0,0,0,0
M0190,Chahasu Coal Mine, ,China,coal,Mothballed,39.302564,109.965281,Exact,Guodian & Jiantou Inner Mongolia Energy Investment Company,China Energy [50%]; Hebei Construction & Investment Group [50%],,Underground,155.8,456.0,Bituminous,Thermal,158.3,0,0,0,0,0,0,0,0,0,0,0,0
M0191,Chaigou Coal Mine, ,China,coal,Operating,39.881266,112.993203,Exact,Shanxi Huairen Lianshun Xida Chaigou Coal Industry Company,Shanxi Zhongmei Shuntong Coal Industry Company [35%]; Huiyong Holding Group [30%]; Beijing Yunduan Technology Development Company [10%]; Beijing Orchid Industry and Trade Group [10%]; Others [15%],,Underground,20.08,456.0,Bituminous,Thermal,126.7,0,0,0,0,0,0,0,0,0,0,0,0
M0192,Changcheng No. 3 Coal Mine, ,China,coal,Proposed,38.369137,106.57545,Exact,Otog Front Banner Changcheng No.3 Mining Company,Shandong Energy [43%]; State Grid Company [10%]; China Huadian Group [16%]; Others [30%],,Underground,49.87,456.0,Bituminous,Met,79.2,0,0,0,0,0,0,0,0,0,0,0,0
M0193,Changcheng No. 5 Coal Mine, ,China,coal,Operating,38.322181,106.529516,Exact,Otog Front Banner Changcheng No.5 Mining Company,Shandong Energy [43%]; State Grid Corporation of China [16%]; China Huadian [16%]; HKSCC Nominees Limited [6%]; Shandong Development Investment Holding Group [2%]; Others [17%],,Underground,14.66,456.0,Bituminous,Thermal & Met,28.5,0,0,0,0,0,0,0,0,0,0,0,0
M0194,Changcheng No. 6 Coal Mine, ,China,coal,Operating,38.299084,106.53429,Exact,Otog Front Banner Changcheng No.6 Mining Company,Shandong Energy [43%]; State Grid Corporation of China [13%]; Inner Mongolia Shuangxin Energy Chemical Company [28%]; Beijing Huirong Shengjing Equity Investment Fund Management Center [4%]; Ordos Antel Investment Company [3%],,Underground,9.43,456.0,Bituminous,Thermal & Met,23.7,0,0,0,0,0,0,0,0,0,0,0,0
M0195,Changping Coal Mine, ,China,coal,Operating,35.911636,112.844663,Exact,Shanxi Changping Coal Industry Company,Jinneng Group [68%]; Others [32%],,Underground,54.91,456.0,Anthracite,Thermal,140.5,0,0,0,0,0,0,0,0,0,0,0,0
M0196,Chengzhuang Coal Mine, ,China,coal,Operating,35.612799,112.72638,Exact,Jincheng Blue Flame Coal Industry Company,Jinneng Group,,Underground,74.33,456.0,Anthracite,Thermal,224.7,0,0,0,0,0,0,0,0,0,0,0,0
M0197,Da'an Coal Mine, ,China,coal,Proposed,44.997659,115.334804,Exact,Abaga Banner Da'an Mining Company,Inner Mongolia Dinghua Industrial Group,,Underground,19.77,456.0,Bituminous,,19.0,0,0,0,0,0,0,0,0,0,0,0,1
M0198,Dafanpu Coal Mine, ,China,coal,Operating,39.762206,111.213023,Exact,Inner Mongolia Jungar Banner Liliang Coal Industry Company,Kinetic Mines And Energy,,Underground,9.61,456.0,Bituminous,Thermal,102.9,0,0,0,0,0,0,0,0,0,0,0,0
M0199,Dafosi Coal Mine, ,China,coal,Operating,35.062428,107.960069,Exact,Shaanxi Bingchang Dafosi Mining Company,Shaanxi Coal and Chemical Industry Group [56.8%]; Binxian Coal Company [5%]; Shaanxi Investment Group [5%]; Others [33%],,Underground,71.29,456.0,Bituminous,Thermal,126.7,0,0,0,0,0,0,0,0,0,0,0,0
M0200,Dahaize Coal Mine, ,China,coal,Operating,38.422179,109.277001,Exact,China Coal Shaanxi Yulin Energy Chemical Company,China Coal,,Underground,265.63,456.0,Bituminous,Thermal,237.5,0,0,0,0,0,0,0,0,0,0,0,0
M0201,Dalaihushuo Coal Mine, ,China,coal,Proposed,45.382698,119.486564,Exact,Inner Mongolia Jimei Mining Industry Company,Jilin Province Coal Industry Group [41%]; Tibet Hengyisheng Investment Company [39%]; Fude Life Insurance Company [20%],,Underground,37.74,456.0,Bituminous,Thermal,95.0,0,0,0,0,0,0,0,0,0,0,0,1
M0202,Daliuta Coal Mine, ,China,coal,Operating,39.263103,110.234325,Exact,China Shenhua Energy,China Energy [69%]; HKSCC Nominees Limited [17%]; Others [14%],,Underground,126.18,456.0,Bituminous,Thermal,285.0,0,0,0,0,0,0,0,0,0,0,0,0
M0204,Dananhu No. 1 Coal Mine, ,China,coal,Operating,42.382334,93.018391,Exact,State Grid Corporation of China Hami Coal & Energy Company,China Energy,,Underground,75.28,456.0,Bituminous,Thermal,158.3,0,0,0,0,0,0,0,0,0,0,0,0
M0205,Dananhu West No. 5 Coal Mine, ,China,coal,Operating,42.326761,93.352559,Exact,Xukuang Group Hami Energy Company,China Energy [23%]; Xuzhou Coal Mining Group [50%]; Others [27%],,Underground,105.7,456.0,Lignite,Thermal,20.5,0,0,0,0,0,0,0,0,0,0,0,0
M0206,Dananhu No. 2 Surface Mine, ,China,coal,Operating,42.380815,92.96712,Exact,State Grid Corporation of China Hami Coal & Energy Company,China Energy,,Surface,40.52,50.0,Subbituminous,Thermal,11.6,0,0,0,0,0,0,0,0,0,0,0,0
M0207,Dazhong Coal Mine, ,China,coal,Proposed,36.192541,114.092354,Exact,Anyang Dazhong Coal Industry Company,Jinqiu Holding Group [30%]; Anyang Sifang Real Estate Development Company [10%]; Yongmei Group [30%]; Henan Energy and Chemical Group [22%]; State-Owned Assets of the Municipal People's Government Supervision and Management Committee [6%]; Others [3%],,Underground,16.04,456.0,Anthracite,Thermal,33.7,0,0,0,0,0,0,0,0,0,0,0,0
M0208,Dingji Coal Mine, ,China,coal,Operating,32.871396,116.631428,Exact,Huaihu Coal and Electricity Company,Huaihe Energy [50%]; China Cinda Asset Management [49%]; Others [1%],,Underground,95.67,456.0,Bituminous,Thermal & Met,95.0,0,0,0,0,0,0,0,0,0,0,0,0
M0209,Dongtan Coal Mine, ,China,coal,Operating,35.440703,116.899403,Exact,Yanzhou Coal Mining Company,Shandong Energy [46%]; HKSCC Nominees Limited [40%]; Others [14%],,Underground,59.96,456.0,Bituminous,Thermal,118.7,0,0,0,0,0,0,0,0,0,0,0,0
M0210,Dongzhouyao Coal Mine, ,China,coal,Operating,40.020636,112.863555,Exact,Jinneng Holding Coal Industry Group Dongzhouyao Datong Company,Jinneng Group,,Underground,119.13,456.0,Bituminous,Thermal,158.3,0,0,0,0,0,0,0,0,0,0,0,0
M0211,Eastern Yiminhe No. 1 Coal Mine, ,China,coal,Operating,48.767664,119.940867,Exact,Inner Mongolia Dayan Mining Group,China Energy,,Surface,49.14,50.0,Lignite,Thermal,4.5,0,0,0,0,0,0,0,0,0,0,0,0
M0212,Fangjiapan Coal Mine, ,China,coal,Operating,38.574815,110.040462,Exact,Yulin Yuyang Fangjiapan Coal Industry Company,Wang Jinlong,,Underground & Surface,32.7,60.0,Bituminous,,5.0,0,0,0,0,0,0,0,0,0,0,0,0
M0213,Fengjiata Coal Mine, ,China,coal,Operating,39.196394,111.13213,Exact,Shaanxi Qingshuichuan Energy Company,Shaanxi Investment Group [66%]; Shaanxi Coal and Chemical Industry Group [34%],,Underground,59.5,456.0,Bituminous,,126.7,0,0,0,0,0,0,0,0,0,0,0,0
M0214,Fenyuan Coal Mine, ,China,coal,Operating,38.573106,112.14003,Exact,Huozhou Coal and Electricity Group,Shanxi Coking Coal Group [57%]; China Cinda Asset Management Company [36%]; Others [8%],,Underground,12.7,456.0,Bituminous,,19.0,0,0,0,0,0,0,0,0,0,0,0,0
M0215,Rover Glushinsky-Shcheglovsky-Latyshevsky Coal Mines, ,Russia,coal,Operating,55.708642,86.076336,Exact,Rover LLC,Rover LLC [100%],,Surface,,60.0,Bituminous,,5.3,0,0,0,0,0,0,0,0,0,0,0,0
M0217,Gangou Coal Mine, ,China,coal,Proposed,44.039167,81.171389,Exact,Xinjiang Zhenxing Tianyuan Coal Industry Company,Oriental Fortune (Beijing) Investment Management Company [90%]; Xinjiang Kekedala State-Owned Capital Investment and Operation Company [10%],,Underground,11.26,456.0,Bituminous,Thermal,38.0,0,0,0,0,0,0,0,0,0,0,0,0
M0218,Gaohe Coal Mine, ,China,coal,Operating,36.152253,112.990815,Exact,Shanxi Gaohe Energy Company,Lu'an Chemical Group [55%]; Asian American Continental Coal Company [45%],,Underground,65.35,456.0,Bituminous,Met,118.7,0,0,0,0,0,0,0,0,0,0,0,0
M0219,Gaojiabao Coal Mine, ,China,coal,Operating,35.268672,107.818112,Exact,Shaanxi Zhengtong Coal Industry,Shandong Energy,,Underground,219,456.0,Bituminous,Thermal,79.2,0,0,0,0,0,0,0,0,0,0,0,0
M0220,Gaojialiang No.1 Coal Mine, ,China,coal,Operating,39.724671,110.065041,Exact,Ordos Haohua Fine Coal Company,Beijing Energy [50%]; Ordos Energy Investment and Development Company [20%]; Shougang Group [1%]; Others [29%],,Underground,96.24,456.0,Bituminous,Thermal,134.6,0,0,0,0,0,0,0,0,0,0,0,0
M0221,Gaoshangou Coal Mine, ,China,coal,Operating,39.874613,110.321401,Approximate,Dalate Wenxing Coal Company,Inner Mongolia Huarui Mining Company [70%]; Ma Tongchun [30%],,Surface,3.26,50.0,Subbituminous,Thermal,1.1,0,0,0,0,0,0,0,0,0,0,0,0
M0222,Gaotouyao Coal Mine, ,China,coal,Operating,40.019808,109.639961,Exact,Inner Mongolia Beilian Power and Energy Development Company,China Huaneng [77%]; Guangdong Hengjian Investment Holding Company [7%]; China Energy [4%]; Others [12%],,Underground,99.45,400.0,Bituminous,Thermal,148.8,0,0,0,0,0,0,0,0,0,0,0,0
M0223,Guangdao Coal Mine, ,China,coal,Operating,36.504525,111.38717,Approximate,Shanxi Hongdong Xishan Guangdao Coal Industry Company,Shanxi Coking Coal Group [27%]; Hongdong Pingan Hengli Building Material Company [49%]; Others [24%],,Underground,16.7,456.0,Bituminous,Met,19.0,0,0,0,0,0,0,0,0,0,0,0,0
M0224,Guanzigou Coal Mine, ,China,coal,Operating,39.549676,111.29482,Exact,Guanzigou Coal Company of Inner Mongolia Manshi Coal Group,Inner Mongolia Manshi Coal Group,,Underground,17.17,456.0,Bituminous,,95.0,0,0,0,0,0,0,0,0,0,0,0,0
M0225,Guizhou Dawan Coal Mine, ,China,coal,Operating,26.779016,104.612282,Exact,Guizhou Shuicheng Mining Company,Guizhou Shuicheng Coal Mine Group [62%]; China Cinda Asset Management [20%],,Underground,5.8,456.0,Bituminous,Met,14.2,0,0,0,0,0,0,0,0,0,0,0,0
M0226,Guojiahe Coal Mine, ,China,coal,Operating,34.85669,107.539367,Exact,Shaanxi Guojiahe Coal Industry Company,Xuzhou Coal Mining Group [60%]; Shaanxi Investment Group [33%]; Baoji State-Owned Assets Management Company [8%],,Underground,94.61,456.0,Bituminous,Thermal,79.2,0,0,0,0,0,0,0,0,0,0,0,0
M0227,Guojiatan Coal Mine, ,China,coal,Proposed,38.611469,109.809687,Exact,Shaanxi Yulin Energy Group Guojiatan Mining Company,Shaanxi Yulin Energy Group,,Underground,14.03,456.0,Subbituminous,Thermal,51.2,0,0,0,0,0,0,0,0,0,0,0,0
M0229,Guqiao Coal Mine, ,China,coal,Operating,32.821408,116.545709,Exact,Huainan Mining Group,Huaihe Energy [83%]; China Cinda Asset Management [8%]; China Energy [3%]; Others [6%],,Underground,92.89,456.0,Bituminous,Thermal,142.5,0,0,0,0,0,0,0,0,0,0,0,0
M0230,Haerwusu Surface Mine, ,China,coal,Operating,39.731044,111.258324,Exact,China Shenhua Energy,China Energy [69%]; HKSCC Nominees Limited [17%]; Others [14%],,Surface,67.17,260.0,Bituminous,Thermal,394.5,0,0,0,0,0,0,0,0,0,0,0,0
M0231,Halagou Coal Mine, ,China,coal,Operating,39.232488,110.076802,Exact,China Shenhua Energy,China Energy [69%]; HKSCC Nominees Limited [17%]; Others [14%],,Underground,72.13,456.0,Bituminous,,253.3,0,0,0,0,0,0,0,0,0,0,0,0
M0232,Hanglaiwan Coal Mine, ,China,coal,Operating,38.530798,109.871886,Exact,Shaanxi Youse Yulin Coal Industry Company,Shaanxi Youser Group [63%]; Shaanxi Yanchang Petroleum Group [38%],,Underground,90.36,456.0,Bituminous,Thermal,158.3,0,0,0,0,0,0,0,0,0,0,0,0
M0233,Hecaogou Coal Mine, ,China,coal,Operating,37.041071,109.666672,Exact,Yan'an Hecaogou Coal Industry Company,Yan’an Energy & Chemical Group [50%]; China Coal [29%]; HKSCC Nominees Limited [15%]; Others [6%],,Underground,100.56,456.0,Bituminous,Thermal,79.2,0,0,0,0,0,0,0,0,0,0,0,0
M0234,Hejiata Coal Mine, ,China,coal,Operating,39.169374,110.355952,Exact,Ministry of Justice of PRC,Ministry of Justice of PRC,,Underground,41.72,456.0,Bituminous,Thermal,28.5,0,0,0,0,0,0,0,0,0,0,0,0
M0235,Hengshi Coal Mine, ,China,coal,Operating,39.723889,106.892778,Exact,Wuhai Hengshi Energy Industry Company,Inner Mongolia Tianyu Innovation Investment Group [95%]; Jiuquan Haohai Coal Chemical Company [5%],,Surface,1.67,273.0,Bituminous,Met,13.8,0,0,0,0,0,0,0,0,0,0,0,0
M0236,Hequ Jiuxian Coal Mine, ,China,coal,Operating,39.140067,111.196655,Exact,Shanxi Coal Import Export Group Hequ Old County Open-Pit Coal Industry Co,Shanxi Coking Coal Group,,Surface,24.95,60.0,Bituminous,Thermal,39.1,0,0,0,0,0,0,0,0,0,0,0,0
M0237,Hesigewula South Surface Coal Mine, ,China,coal,Operating,45.92834677,119.1066869,Exact,Inner Mongolia Xilinhe Coal Chemical Company,China Energy [51%]; Inner Mongolia Jarud Banner Xingta Mining Industry Company [49%],,Surface,17.55,168.0,Lignite,Thermal,36.8,0,0,0,0,0,0,0,0,0,0,0,1
M0238,Hetaoyu Coal Mine, ,China,coal,Operating,35.269947,107.946376,Exact,China Huaneng Gansu Energy Development Company,China Huaneng,,Underground,183.2,1100.0,Bituminous,Thermal,168.6,0,0,0,0,0,0,0,0,0,0,0,0
M0239,Hongdunzi No. 1 Coal Mine, ,China,coal,Operating,38.392215,106.542109,Exact,Ningxia Hongdunzi Coal Industry Company,SPIC Aluminum & Power Investment Company [76%]; Ningxia State-Owned Capital Operation Group Compay [24%],,Underground,33.49,456.0,Bituminous,Met,38.0,0,0,0,0,0,0,0,0,0,0,0,0
M0240,Hongdunzi No. 2 Coal Mine, ,China,coal,Operating,38.413869,106.581473,Exact,Ningxia Hongdunzi Coal Industry Company,SPIC Aluminum & Power Investment Company [76%]; Ningxia State-Owned Capital Operation Group Compay [24%],,Underground,22.7,456.0,Bituminous,Met,38.0,0,0,0,0,0,0,0,0,0,0,0,0
M0241,Hongjingta No. 1 Coal Mine, ,China,coal,Operating,39.458669,110.559449,Exact,Inner Mongolia Yitai Coal Group,Inner Mongolia Yitai Investment,,Underground,28.41,456.0,Bituminous,Thermal,61.7,0,0,0,0,0,0,0,0,0,0,0,0
M0242,Hongliulin Coal Mine, ,China,coal,Operating,38.935223,110.400815,Exact,Shaanxi Coal Group; Shenmu Hongliulin Mining Company,Shaanxi Coal and Chemical Industry Group [32%]; Shenmu County State-Owned Assets Operation Company [24%]; Shaanxi Yulin Energy Group [25%]; China Development Bank [19%],,Underground,151,456.0,Bituminous,Thermal,285.0,0,0,0,0,0,0,0,0,0,0,0,0
M0243,Hongqinghe Coal Mine, ,China,coal,Operating,39.292114,109.684071,Exact,Inner Mongolia Yitai Guanglian Coal Chemical Company,Inner Mongolia Yitai Investment [90%]; Inner Mongolia Guanglian Minzu Economic Development Company [5%]; Inner Mongolia Coal Field Geological Bureau [5%],,Underground,181.44,456.0,Bituminous,Thermal,126.7,0,0,0,0,0,0,0,0,0,0,0,0
M0244,Hongqingliang Coal Mine, ,China,coal,Operating,39.875788,109.367767,Exact,Hangjinqi West Energy Development Company,Shanxi Zhongbo Real Estate Development Company [40%]; Beijing Energy Group [37%]; Shougang Group [1%]; China Coal [1%],,Underground,48.58,456.0,Bituminous,Thermal,95.0,0,0,0,0,0,0,0,0,0,0,0,0
M0245,Hongshan West Coal Mine, ,China,coal,Proposed,44.438297,84.766747,Exact,Xinjiang Zhongfu Mining Industry Company,State-Owned Assets Management Company Hangzhou Jinjiang Group [51%]; Zhejiang Kangrui Investment Company [44%],,Underground,11.08,456.0,Bituminous,Thermal,19.0,0,0,0,0,0,0,0,0,0,0,0,0
M0246,Hongshaquan No. 1 Surface Mine, ,China,coal,Operating,44.502378,90.296864,Exact,China Energy Xinjiang Hongshaquan Energy Company,China Energy,,Surface,79.37,60.0,Bituminous,Thermal,117.2,0,0,0,0,0,0,0,0,0,0,0,0
M0247,Hongshaquan North Coal Mine, ,China,coal,Operating,44.5192,90.3135,Exact,Zhonglian Runshi Xinjiang Coal Industry Company,Yima Coal Industry Group [60%]; Beijing Lirui Investment Company [40%],,Surface,12.88,60.0,Bituminous,Thermal,46.9,0,0,0,0,0,0,0,0,0,0,0,0
M0248,Hongshuliang Coal Mine, ,China,coal,Operating,39.452624,111.290036,Exact,Inner Mongolia Kailuan Hongfeng Coal Company,Kailuan Group [60%]; Inner Mongolia Shengli Resource Group [16%]; Erdos Chunhui Forest Company [12%]; Junggar Juli Cultivation Company [12%],,Underground,29.69,456.0,Bituminous,Thermal,79.2,0,0,0,0,0,0,0,0,0,0,0,0
M0249,Hongsi Coal Mine, ,China,coal,Operating,38.480866,106.613547,Exact,Ningxia Baofeng Group,Ningxia Baofeng Group [36%]; Dongyi International Group [27%]; Others [37%],,Underground,25.38,456.0,Bituminous,Met,47.5,0,0,0,0,0,0,0,0,0,0,0,0
M0250,Huangling Jianzhuang Coal Mine, ,China,coal,Operating,35.390535,108.919611,Exact,Shaanxi Coal Industry Group Huangling Jianzhuang Mining Company,Shaanxi Coal and Chemical Industry Group [25%]; China Huadian [21%]; China Energy [30%]; Others [24%],,Underground,91.52,456.0,Bituminous,,79.2,0,0,0,0,0,0,0,0,0,0,0,0
M0251,Huangling No. 1 Coal Mine, ,China,coal,Operating,35.656136,109.064794,Exact,Huangling Mining Company,Shaanxi Coal and Chemical Industry Group,,Underground,197.5,456.0,Bituminous,Thermal,95.0,0,0,0,0,0,0,0,0,0,0,0,0
M0252,Huangling No. 2 Coal Mine, ,China,coal,Operating,35.661062,108.91871,Exact,Shaanxi Huangling No.2 Coal Mine Company,Shaanxi Coal and Chemical Industry Group [34%]; Jiangsu Yueda Group [45%]; Industrial and Commercial Bank of China [21%],,Underground,351.94,456.0,Bituminous,,126.7,0,0,0,0,0,0,0,0,0,0,0,0
M0253,Huangyuchuan Coal Mine, ,China,coal,Operating,39.67209,111.183497,Exact,China Energy Elion Energy Company,China Energy [37%]; Elion Group [49%]; Others [14%],,Underground,42.68,456.0,Bituminous,Thermal,205.8,0,0,0,0,0,0,0,0,0,0,0,0
M0254,Hujiahe Coal Mine, ,China,coal,Operating,35.149375,107.933254,Exact,Shaanxi Binchang Hujiahe Mining Company,Shaanxi Coal and Chemical Industry Group [45%]; China Development Bank [6%]; Others [49%],,Underground,55.24,250.0,Bituminous,Thermal,52.5,0,0,0,0,0,0,0,0,0,0,0,0
M0255,Hulusu Coal Mine, ,China,coal,Operating,39.047968,109.500809,Exact,Zhongtian Hechuang Energy Company,China Coal [38%]; Sinopec [38%]; Shenergy [13%]; Manshi Group [10%]; Others [1%],,Underground,92.76,456.0,Bituminous,Thermal,126.7,0,0,0,0,0,0,0,0,0,0,0,0
M0256,Huojitu Well Of Daliuta Coal Mine, ,China,coal,Operating,39.259312,110.224368,Exact,China Shenhua Energy,China Energy [69%]; HKSCC Nominees Limited [17%]; Others [14%],,Underground,63.78,456.0,Subbituminous,Thermal,76.8,0,0,0,0,0,0,0,0,0,0,0,0
M0257,Huolinhe South Surface Mine, ,China,coal,Operating,45.496018,119.594395,Exact,Inner Mongolia Huolinhe Open-Pit Coal Industry Company,State Power Investment Corporation [SPIC] [39%]; Huolinhe Coal Industry Group [26%]; Others [35%],,Surface,34,276.0,Lignite,Thermal,62.3,0,0,0,0,0,0,0,0,0,0,0,1
M0258,Inner Mongolia Erlintu Coal Mine, ,China,coal,Operating,39.217439,110.006028,Exact,Inner Mongolia Huineng Group Er Lin Tu Coal Company,Inner Mongolia Huineng Coal and Electricity Group [55%]; Shenmu Taide Energy Investment Company [17%]; Inner Mongolia Kaiyuan Shiye Group [10%]; Shendong Tianlong Group [9%]; Erdos Jiuyuan Investment Company [2%]; Others [7%],,Underground,70.33,456.0,Bituminous,Thermal,126.7,0,0,0,0,0,0,0,0,0,0,0,0
M0259,Jiangjun Gebi No. 2 Coal Mine, ,China,coal,Operating,44.648912,90.152365,Exact,Xinjiang Tianchi Energy,Tebian Electric Apparatus [TBEA] [86%]; Xinjiang Joinworld Company [14%],,Surface,77.5,60.0,Bituminous,Thermal,117.2,0,0,0,0,0,0,0,0,0,0,0,0
M0261,Jianyuan Coal Mine, ,China,coal,Proposed,39.342871,106.995121,Exact,Otog Banner Jianyuan Coking Company,Hongxing International Development Company,,Underground,25.42,456.0,Bituminous,,60.2,0,0,0,0,0,0,0,0,0,0,0,0
M0262,Jilangde Coal Mine, ,China,coal,Operating,44.181805,91.738652,Approximate,Hami Hexiang Industry and Trade Company,China Coal [46%]; Ningbo Hesheng Group [20%]; Xinjiang Coal Trading Center Company [10%]; Others [24%],,Surface,14.89,50.0,Subbituminous,Thermal,2.7,0,0,0,0,1,1,1,0,0,0,0,0
M0263,Jingfu Bachigou Coal Mine, ,China,coal,Shelved,39.053177,111.076716,Exact,Fugu State-Owned Assets Management Bureau,Fugu State-Owned Assets Management Bureau,,Underground,8.28,456.0,Anthracite,Thermal,42.1,0,0,0,0,0,0,0,0,0,0,0,0
M0264,Jinggong No. 1 Coal Mine, ,China,coal,Operating,39.446524,112.361964,Exact,China Coal Pingshuo Group,China Coal [57%]; HKSCC Nominees Limited [30%]; Others [13%],,Underground,20.21,456.0,Bituminous,,158.3,0,0,0,0,0,0,0,0,0,0,0,0
M0265,Jinggong No. 3 Coal Mine, ,China,coal,Operating,39.539072,112.326699,Exact,China Coal Pingshuo Group,China Coal [57%]; HKSCC Nominees Limited [30%]; Others [13%],,Underground,19.23,456.0,Bituminous,,158.3,0,0,0,0,0,0,0,0,0,0,0,0
M0266,Jining No. 3 Coal Mine, ,China,coal,Operating,35.274389,116.667245,Exact,Yanzhou Coal Mining Company,Shandong Energy [46%]; HKSCC Nominees Limited [40%]; Others [14%],,Underground,105.1,456.0,Bituminous,Thermal,95.0,0,0,0,0,0,0,0,0,0,0,0,0
M0267,Jinjie Coal Mine, ,China,coal,Operating,38.742365,110.171171,Exact,China Energy Jinjie Energy Company,China Energy [49%]; State Grid Corporation of China [30%]; Others [21%],,Underground,141.77,456.0,Bituminous,Thermal,285.0,0,0,0,0,0,0,0,0,0,0,0,0
M0268,Jinjitan Coal Mine, ,China,coal,Operating,38.506707,109.819371,Exact,Shaanxi Future Energy Chemical Company,Shandong Energy [62%]; Shaanxi Yanchang Petroleum Group [19%]; Jiaxing Dejian Investment Partnership [5%]; Others [14%],,Underground,107.89,456.0,Bituminous,Thermal,269.1,0,0,0,0,0,0,0,0,0,0,0,0
M0269,Jinneng Coal Mine, ,China,coal,Operating,38.401258,112.022623,Exact,Huozhou Coal and Electricity Group,China Huadian [49%]; Shanxi Coking Coal Group [30%]; China Cinda Asset Management [20%]; China Construction Bank [1%],,Underground,20.42,456.0,Bituminous,Met,19.0,0,0,0,0,0,0,0,0,0,0,0,0
M0270,Kabuqi Coal Mine, ,China,coal,Operating,39.623996,106.892109,Exact,Wuhai Wenming Mining Company,Inner Mongolia Tianyu Innovation Investment Group,,Surface,2.26,290.0,Bituminous,Met,14.3,0,0,0,0,0,0,0,0,0,0,0,0
M0271,Kouzi East Coal Mine, ,China,coal,Operating,32.833342,116.162687,Exact,China Coal Xinji Energy,China Coal [30%]; China Energy [7%]; Anhui Xinji Coal and Electricity Group [7%] China COSCO Shipping [56%],,Underground,33.6,456.0,Bituminous,Thermal & Met,79.2,0,0,0,0,0,0,0,0,0,0,0,0
M0272,Liang Bei Coal Mine, ,China,coal,Operating,34.090606,113.464711,Approximate,Henan Xuchang Xinlong Mine Industry Company,Henan Shenhuo Group [24%]; Shangqiu Oriental Investment Company [14%]; Others [62%],,Underground,42.33,800.0,Bituminous,Met,46.6,0,0,0,0,0,0,0,0,0,0,0,0
M0274,Liangshuijing Coal Mine, ,China,coal,Operating,38.794192,110.246348,Exact,Shaaxi Energy Liangshuijing Mining Company,Shaanxi Investment Group [47%]; Shaanxi Yulin Energy Group Huisen Investment and Management [5%]; China Energy [30%]; Shenmu State-Owned Assets Operation Company [17%]; Others [1%],,Underground,68.9,456.0,Bituminous,,126.7,0,0,0,0,0,0,0,0,0,0,0,0
M0275,Libi Coal Mine, ,China,coal,Proposed,35.695959,112.289351,Exact,Guotou Jincheng Energy Investment Company,China Coal [51%]; Shanxi Coking Coal Group [49%],,Underground,43.42,456.0,Anthracite,Thermal,112.4,0,0,0,0,0,0,0,0,0,0,0,0
M0276,Lijiahao Coal Mine, ,China,coal,Operating,39.738114,110.024669,Exact,China Energy Baotou Energy Company,China Energy [69%]; HKSCC Nominees Limited [17%]; Others [14%],,Underground,67.65,456.0,Bituminous,Thermal,95.0,0,0,0,0,0,0,0,0,0,0,0,0
M0277,Lingbei Coal Mine, ,China,coal,Proposed,36.943231,111.710691,Exact,Shanxi Fenxi Mining Group,Shanxi Coking Coal Group [59%]; China Cinda Asset Management Company [36%]; China Huarong Asset Management Company [2%]; China Construction Bank [2%]; Others [1%],,Underground,29.54,456.0,Bituminous,Met,38.0,0,0,0,0,0,0,0,0,0,0,0,0
M0278,Lingdong Coal Mine, ,China,coal,Operating,49.393174,117.766854,Exact,Zhalainuo'er Coal Industry Company,China Huaneng,,Underground,27.8,456.0,Lignite,Thermal,33.3,0,0,0,0,0,0,0,0,0,0,0,0
M0279,Liushenyu Coal Mine, ,China,coal,Operating,36.592988,112.209382,Exact,Shanxi Tongzhou Group Liushenyu Coal Industry Company,Shanxi Tongzhou Coal and Coke Group,,Underground,15.86,456.0,Bituminous,,19.0,0,0,0,0,0,0,0,0,0,0,0,0
M0280,Liuzhuang Coal Mine, ,China,coal,Operating,32.805365,116.285412,Exact,China Coal Xinji Energy,China Coal [30%]; China Energy [7%]; Anhui Xinji Coal and Electricity Group [7%]; Others [55%],,Underground,82.21,456.0,Bituminous,Thermal,174.2,0,0,0,0,0,0,0,0,0,0,0,0
M0281,Longwan Coal Mine, ,China,coal,Proposed,35.581287,112.222324,Exact,Shanxi Jinmei Qinxiulong Bay Energy Company,Jinneng Group [44%]; Huayang New Material Technology Group [18%]; Yangcheng County Yangtai Group [21%]; Shanxi Yujin Trading Company [9%]; Shanxi Juhuang Century Investment Company [6%]; Others [2%],,Underground,103.58,456.0,Anthracite,Thermal & Met,112.4,0,0,0,0,0,0,0,0,0,0,0,0
M0282,Longwanggou Coal Mine, ,China,coal,Operating,39.810538,111.214212,Exact,Ordos Guoyuan Mining Development Company,China Datang [51%]; Luen Mei Group [49%],,Underground,51.15,456.0,Bituminous,Thermal,237.5,0,0,0,0,0,0,0,0,0,0,0,0
M0283,Lu'an Wangzhuang Coal Mine, ,China,coal,Operating,36.373933,113.01989,Exact,Shanxi Lu'an Environmental Energy Development Company,Lu'an Chemical Group,,Underground,79.45,456.0,Bituminous,Met,112.4,0,0,0,0,0,0,0,0,0,0,0,0
M0284,Luntai Yangxia Coal Mine, ,China,coal,Proposed,41.962115,84.53258,Approximate,Xinjiang Shenxin Development Company,Xinjiang Shenxin Development Company [67%]; Trade Union Committee [33%],,Underground,11.36,456.0,Bituminous,Thermal,19.0,0,0,0,0,0,0,0,0,0,0,0,0
M0285,Luotuoshan Coal Mine, ,China,coal,Proposed,39.562707,106.91727,Exact,Shenhua Group Haibowan Mining Company,China Energy,,Underground,11.57,456.0,Bituminous,met,23.7,0,0,0,0,0,0,0,0,0,0,0,0
M0286,Madaotou Coal Mine, ,China,coal,Operating,39.840587,112.655069,Exact,Datong Coal Mine Group Madaotou Coal Industry Company,Jinneng Group,,Underground,130.58,456.0,Lignite,Thermal,51.2,0,0,0,0,0,0,0,0,0,0,0,0
M0287,Majialiang Coal Mine, ,China,coal,Operating,39.179446,112.420825,Exact,Datong Coal Mining Group Xuangang Coal and Electricity,Jinneng Holding Group [88%]; Others [12%],,Underground,104.29,456.0,Bituminous,Thermal,190.0,0,0,0,0,0,0,0,0,0,0,0,0
M0288,Manglai Surface Coal Mine, ,China,coal,Proposed,44.036567,113.229983,Exact,China Railway Resources Sunitezuoqi Manglai Surface Mine Company,China Reform Holdings Company [18%]; China Coal [14%]; China Chengtong Holding Company [10%]; China Energy [7%]; Cathay Olympic Investment Company [49%]; Others [2%],,Surface,15.63,110.0,Lignite,Thermal,17.9,0,0,0,0,0,0,0,0,0,0,0,0
M0289,Maomaoshan Coal Mine, ,China,coal,Operating,39.843424,112.871495,Exact,Shanxi Coal Transportation Group Maomaoshan Coal Industry Company,Jinneng Group [26%]; China Energy [24%]; Xinglonggou Village Committee [24%]; Shanxi Yuehua Xingsheng Energy Investment Company [24%]; Others [2%],,Underground,17.42,360.0,Bituminous,Thermal,25.5,0,0,0,0,0,0,0,0,0,0,0,0
M0290,Mayixi No.1 Coal Mine, ,China,coal,Operating,25.530431,104.691777,Exact,Guizhou Panjiang Mayi Coal Industry Company,Guizhou Panjiang Coal and Electricity Group [42%]; Shandong Energy [8%]; Guangdong Yuedian Holdings West Investment Company [11%]; Guangdong Yuedian Group [8%]; China Southern Power Grid Company [1%]; Guizhou Coalfield Geology Bureau [6%]; Others [24%],,Underground,21.04,456.0,Bituminous,Met,19.0,0,0,0,0,0,0,0,0,0,0,0,0
M0290,Mayixi No.1 Coal Mine, ,China,coal,Proposed,25.530431,104.691777,Exact,Guizhou Panjiang Mayi Coal Industry Company,Guizhou Panjiang Coal and Electricity Group [42%]; Shandong Energy [8%]; Guangdong Yuedian Holdings West Investment Company [11%]; Guangdong Yuedian Group [8%]; China Southern Power Grid Company [1%]; Guizhou Coalfield Geology Bureau [6%]; Others [24%],,Underground,,456.0,Bituminous,Thermal,19.0,0,0,0,0,0,0,0,0,0,0,0,0
M0291,Meihuajing Coal Mine, ,China,coal,Operating,38.096785,106.718029,Exact,China Energy Group Ningxia Coal Industry Company,China Energy [51%]; Ningxia State-Owned Capital Operation Group [49%],,Underground,72.6,456.0,Bituminous,Thermal,190.0,0,0,0,0,0,0,0,0,0,0,0,0
M0292,Mengcun Coal Mine, ,China,coal,Operating,35.146834,107.933183,Exact,Shaanxi Binchang Mengcun Mining Group,Shaanxi Coal and Chemical Industry Group [45%]; China Development Bank [6%]; Others [49%],,Underground,63.6,456.0,Bituminous,Thermal,95.0,0,0,0,0,0,0,0,0,0,0,0,0
M0293,Menkeqing Coal Mine, ,China,coal,Operating,38.901778,109.538887,Exact,Zhongtian Hechuang Energy Company,China Coal [38%]; Sinopec [38%]; Shenergy [13%]; Manshi Group [10%]; Others [1%],,Underground,88.63,456.0,Bituminous,Thermal,126.7,0,0,0,0,0,0,0,0,0,0,0,0
M0294,Minda Surface Mine, ,China,coal,Operating,39.833503,110.142382,Exact,Ordos Minda Coal Company,Ordos Minda Coal Company,,Surface,20.71,120.0,Subbituminous,Thermal,15.2,0,0,0,0,0,0,0,0,0,0,0,0
M0295,Muduchaideng Coal Mine, ,China,coal,Operating,38.837173,109.468665,Exact,Erdos Yihua Mining Resources Company,China Coal [66%]; Inner Mongolia Boyuan Holdings Group [11%]; Others [23%],,Underground,59.59,456.0,Bituminous,Thermal,95.0,0,0,0,0,0,0,0,0,0,0,0,0
M0296,Nalin River No.2 Coal Mine, ,China,coal,Operating,38.060343,108.973298,Exact,Wushenqi Mengda Mining Company,China Coal [66%]; Inner Mongolia Boyuan Holdings Group [11%]; Others [23%],,Underground,176.34,456.0,Bituminous,Thermal,126.7,0,0,0,0,0,0,0,0,0,0,0,0
M0297,Nalinmiao No.2 Well Coal Mine, ,China,coal,Operating,39.365488,110.607263,Exact,Inner Mongolia Yitai Coal Group,Inner Mongolia Yitai Investment,,Underground,20.96,456.0,Bituminous,Thermal,79.2,0,0,0,0,0,0,0,0,0,0,0,0
M0298,Nayuan Surface Coal Mine, ,China,coal,Operating,39.801343,110.305378,Exact,Ordos Bayin Mengke Nayuan Coal Company,Ordos Bayin Mengke Investment Group [65%]; Shanghai Haihao Investment and Development Company [25%]; Others [10%],,Surface,29.08,60.0,Bituminous,Thermal,23.4,0,0,0,0,0,0,0,0,0,0,0,0
M0299,Niaoshan Coal Mine, ,China,coal,Operating,47.311077,130.358064,Exact,Heilongjiang Longmei Mining Group Hegang Branch,Heilongjiang Longmay Mining Holding Group,,Underground,8.75,456.0,Bituminous,Met,19.0,0,0,0,0,0,0,0,0,0,0,0,0
M0301,Ningtiaota Coal Mine, ,China,coal,Operating,39.030282,110.250253,Exact,Shaanxi Coal Group; Shenmu Ningtiaota Mining Company,Shaanxi Coal and Chemical Industry Group [32%]; Yulin State-Owned Capital Operation and Management Company [25%]; Shenmu City State-Owned Assets Operation Company [24%]; Others [19%],,Underground,136.1,456.0,Bituminous,Thermal,285.0,0,0,0,0,0,0,0,0,0,0,0,0
M0302,Ningxia Hongliu Coal Mine, ,China,coal,Operating,37.883204,106.7576,Exact,China Energy Ningxia Coal Industry Company,China Energy [51%]; Ningxia State-Owned Capital Operation Group [49%],,Underground,79.55,456.0,Bituminous,Thermal,126.7,0,0,0,0,0,0,0,0,0,0,0,0
M0303,Ningxia Yong'an Coal Mine, ,China,coal,Proposed,37.423516,106.595505,Approximate,Ningxia Sunshine Mining Company,Shougang Group [51%]; Shanghai Sunshine Investment Group [49%],,Underground,21.68,456.0,Bituminous,Met,19.0,0,0,0,0,0,0,0,0,0,0,0,0
M0304,Nongnaimiao Luxin Coal Mine, ,China,coal,Operating,45.654191,119.144472,Exact,Inner Mongolia Luxin Energy Development Company,Shandong Energy [66.6%]; Shanghai Zhixin Electric Company [25%]; China Southern Power Grid Company [8%]; Others [1%],,Underground,28.61,456.0,Lignite,Thermal,25.6,0,0,0,0,0,0,0,0,0,0,0,0
M0305,Pangpangta Coal Mine, ,China,coal,Operating,37.998811,111.13841,Exact,Huozhou Coal Power Group; Lu Ling Energy and Chemical Company,Shanxi Coking Coal Group [58%]; China Cinda Asset Management Company [36%]; China Construction Bank [4%],,Underground,103.25,456.0,Bituminous,Met,158.3,0,0,0,0,0,0,0,0,0,0,0,0
M0306,Pingshuo East Coal Mine, ,China,coal,Operating,39.550649,112.442337,Exact,China Coal Pingshuo Group,China Coal [57%]; HKSCC Nominees Limited [30%]; Others [13%],,Surface,48.41,50.0,Subbituminous,Thermal,17.9,0,0,0,0,0,0,0,0,0,0,0,0
M0307,Qianjiaying Coal Mine, ,China,coal,Operating,39.599037,118.364658,Exact,Kailuan Group,Kailuan Group,,Underground,32.36,456.0,Bituminous,Met,85.5,0,0,0,0,0,0,0,0,0,0,0,0
M0308,Qiketai Mining Area Resource Integration Zone No. 1 Coal Mine, ,China,coal,Proposed,42.996408,90.654712,Approximate,Shanshan County Taixin Kunde Coal Industry Company,Shanshan County Taixin Kunde Coal Industry Company,,Underground,,456.0,Bituminous,,23.7,0,0,0,0,0,0,0,0,0,0,0,0
M0309,Qingchunta Coal Mine, ,China,coal,Operating,39.476108,111.32351,Exact,Inner Mongolia Pearl River Investment Company,Guangdong Hanjian Holding Company [94%]; Shanghai Chengrui Investment Company [6%],,Underground,44.2,456.0,Bituminous,Thermal,95.0,0,0,0,0,0,0,0,0,0,0,0,0
M0310,Qinghua No.7 Coal Mine, ,China,coal,Proposed,44.004615,81.380651,Approximate,Qinghua Group Yili Mining Investment Company,China Kingho Energy Group,,Underground,29.71,456.0,Bituminous,,47.5,0,0,0,0,0,0,0,0,0,0,0,0
M0311,Qingshuiying Coal Mine, ,China,coal,Operating,38.125694,106.728935,Exact,Shenhua Ningxia Coal Group,China Energy [51%]; Ningxia State-Owned Capital Operation Group [49%],,Underground,63.5,456.0,Bituminous,Thermal,79.2,0,0,0,0,0,0,0,0,0,0,0,0
M0312,Qipanjing Anli Coal Mine, ,China,coal,Shelved,39.424032,107.063818,Exact,Erdos Hongsen Mining Company,Hongsen Investment Management Company [94%]; Sanya Hongsen Investment Management Company [6%],,Surface,4.93,60.0,Bituminous,Met,4.7,0,0,0,0,0,0,0,0,0,0,0,0
M0313,Qiyuan Coal Mine, ,China,coal,Proposed,37.887028,113.24403,Exact,Yangquan Coal Industry Group Qiyuan Coal Industry Company,Huayang New Material Technology Group,,Underground,185.15,456.0,Anthracite,Thermal,140.5,0,0,0,0,0,0,0,0,0,0,0,0
M0314,Runtian Coal Mine, ,China,coal,Proposed,43.078611,88.092778,Exact,Xinjiang Runtian Technology Development Company,Xinjiang Runtian Technology Development Company,,Underground,21.05,456.0,Bituminous,Thermal,19.0,0,0,0,0,0,0,0,0,0,0,0,0
M0316,Sanjiao No.1 Coal Mine, ,China,coal,Proposed,37.786314,111.066045,Exact,Shanxi Jinmei Taigang Energy Company,Jinneng Group,,Underground,93.56,456.0,Bituminous,Met,95.0,0,0,0,0,0,0,0,0,0,0,0,0
M0317,Selian No.1 Coal Mine, ,China,coal,Operating,39.866469,109.844292,Exact,Inner Mongolia Erdos Mining Investment Company,Jinneng Group [29%]; Inner Mongolia Erdos Investment Group [30%]; Zhejiang Energy Group [19%]; Others [22%],,Underground,89.51,456.0,Bituminous,Thermal,126.7,0,0,0,0,0,0,0,0,0,0,0,0
M0318,Selian No.2 Coal Mine, ,China,coal,Operating,39.866482,109.843954,Exact,Ordos Zhongbei Coal Chemical Company,Huaihe Energy [62%]; China Cinda Asset Management [6%]; China Energy [1%]; Hawaii Motor [30%]; Others [1%],,Underground,38.32,456.0,Bituminous,Thermal,126.7,0,0,0,0,0,0,0,0,0,0,0,0
M0319,Shaanxi Caojiatan Coal Mine, ,China,coal,Operating,38.556704,109.898777,Exact,Shaanxi Coal Caojiatan Mining Company,Shaanxi Coal and Chemical Industry Group [51%]; Shaanxi Financial Holding Group [23%]; Yulin City Yuyang District Energy Investment Company [12%]; Yulin State-Owned Asset Operation and Management Company [8%]; Shenmu County State-Owned Asset Management Company [5%],,Underground,125.97,456.0,Bituminous,Thermal,395.8,0,0,0,0,0,0,0,0,0,0,0,0
M0321,Shajihai No.1 Coal Mine, ,China,coal,Operating,46.553039,86.205922,Exact,State Grid Energy Hefeng Coal Power Company,China Energy,,Underground,44,456.0,Bituminous,,79.2,0,0,0,0,0,0,0,0,0,0,0,0
M0323,Shaliang Coal Mine, ,China,coal,Operating,39.237352,110.663704,Approximate,Shaanxi Yongxin Mining Company,Shaanxi Coal and Chemical Industry Group [43%]; Fugu State-Owned Assets Operation Company [40%]; Fugu Dongyuan Coking Coal Company [10%]; Shenmu Xinsheng Coking-Coal & Chemical Company [7%],,Underground,25.57,456.0,Bituminous,Thermal,19.0,0,0,0,0,0,0,0,0,0,0,0,0
M0324,Shanghaimiao Changcheng No.1 Coal Mine, ,China,coal,Proposed,38.268543,106.552558,Exact,Otog Front Banner Great Wall Coal Mine Company,Shandong Energy [43%]; Yingda International Trust Company [22%]; China Huadian [17%]; Others [18%],,Underground,16.02,456.0,Bituminous,Thermal & Met,47.5,0,0,0,0,0,0,0,0,0,0,0,0
M0325,Shanghe Coal Mine, ,China,coal,Operating,35.566156,111.950327,Approximate,Yangquan Coal Industry Group Yicheng Shanghe Coal Industry Company,Huayang New Material Technology Group [29.46%]; Jiangsu Shagang Herun Energy Investment Company [25.3%]; Others [42.24%],,Underground,5.997,456.0,Bituminous,,19.0,0,0,0,0,0,0,0,0,0,0,0,0
M0326,Shangwan Coal Mine, ,China,coal,Operating,39.217545,110.007346,Exact,China Shenhua Energy,China Energy [69%]; HKSCC Nominees Limited [17%]; Others [14%],,Underground,61.8,456.0,Bituminous,Thermal,253.3,0,0,0,0,0,0,0,0,0,0,0,0
M0327,Shangyuquan Coal Mine, ,China,coal,Operating,39.256901,111.22119,Exact,Shanxi Luneng Hequ Electricity & Coal Development Company,Guangdong Jinma Tourism Group [70%]; Jinneng Group [30%],,Underground,29.78,456.0,Bituminous,Thermal,79.2,0,0,0,0,0,0,0,0,0,0,0,0
M0328,Shanshan No.2 Coal Mine, ,China,coal,Proposed,43.000206,90.654709,Approximate,Shanshan Taijin Mining Investment Company,Shanshan Taijin Mining Investment Company,,Underground,9.05,456.0,Bituminous,Thermal,19.0,0,0,0,0,0,0,0,0,0,0,0,0
M0329,Shanxi Dongda Coal Mine, ,China,coal,Proposed,35.726066,112.424415,Exact,Shanxi Coal Transportation and Sale Group Dongda Energy Company,Jinneng Group,,Underground,117.24,456.0,Bituminous,Thermal & Met,79.2,0,0,0,0,0,0,0,0,0,0,0,0
M0330,Shanxi Jinyuan Coal Mine, ,China,coal,Proposed,37.677145,110.849801,Exact,Shanxi Linxian Jinyuan Coal Company,Meijin Energy Group [51%]; Shandong Energy [38%]; China Cinda Asset Management Company [10%]; Others [1%],,Underground,68.15,456.0,Bituminous,Met,95.0,0,0,0,0,0,0,0,0,0,0,0,0
M0331,Shanxi Lu'an Gucheng Coal Mine, ,China,coal,Operating,36.25626,112.918649,Exact,Shanxi Lu'an Mining Group,Lu'an Chemical Group,,Underground,157.3,456.0,Bituminous,Thermal & Met,126.7,0,0,0,0,0,0,0,0,0,0,0,0
M0332,Shanxin Village Surface Coal Mine, ,China,coal,Operating,24.221251,103.41029,Exact,Yunnan Guoneng Coal Power Company,Jinshiqi International Holdings Company,,Surface,12.65,50.0,Subbituminous,Thermal,5.4,0,0,0,0,0,0,0,0,0,0,0,0
M0333,Shanyang Coal Mine, ,China,coal,Proposed,35.248411,110.059135,Exact,Shaanxi Chenghe Shanyang Coal Mining Company,Shaanxi Coal and Chemical Industry Group [65%]; Jinneng Group [10%]; State Power Investment Corporation [3%]; Others [22%],,Underground,81.17,456.0,Bituminous,Met,47.5,0,0,0,0,0,0,0,0,0,0,0,0
M0334,Shaozhai Coal Mine, ,China,coal,Operating,35.001558,107.828481,Exact,Huaneng Lingtai Shaozhai Coal Industry Company,Shandong Energy,,Underground,37.94,456.0,Bituminous,Thermal,38.0,0,0,0,0,0,0,0,0,0,0,0,0
M0335,Shaqu No.1 Coal Mine, ,China,coal,Mothballed,37.411799,110.861439,Exact,Huajin Coking Coal Company,China Coal [28%]; Shanxi Coking Coal Group [51%]; Others [21%],,Underground,70.72,456.0,Bituminous,Met,71.2,0,0,0,0,0,0,0,0,0,0,0,0
M0336,Shengli East No.2 Coal Mine, ,China,coal,Proposed,44.06697,116.22348,Exact,Inner Mongolia Datang International Xilinhaote Mining Company,China Datang [35.34%]; HKSCC Nominees Limited [32.9%]; Tianjin Energy Investment Group [7%]; Hebei Construction & Investment Group[6.93%]; Beijing Energy [6.81%]; Others [3.27%],,Surface,49.63,50.0,Lignite,Thermal,17.9,0,0,0,0,0,0,0,0,0,0,0,0
M0336,Shengli East No.2 Coal Mine, ,China,coal,Proposed,44.06697,116.22348,Exact,Inner Mongolia Datang International Xilinhaote Mining Company,China Datang [35.34%]; HKSCC Nominees Limited [32.9%]; Tianjin Energy Investment Group [7%]; Hebei Construction & Investment Group[6.93%]; Beijing Energy Group [6.81%]; Others[3.27%],,Surface,49.63,50.0,Lignite,Thermal,26.8,0,0,0,0,0,0,0,0,0,0,0,0
M0337,Shengli No.1 Open-Pit Coal Mine, ,China,coal,Operating,44.002945,116.00678,Exact,China Energy Beidian Shengli Energy,China Energy [46%]; China Huaneng[26%]; Others[28%],,Surface,34.36,191.0,Lignite,Thermal,75.0,0,0,0,0,0,0,0,0,0,0,0,0
M0338,Shengli West No.2 Coal Mine, ,China,coal,Operating,43.954677,115.91126,Exact,Xilin Gol Mengdong Mining Company,China Energy [51%]; Chaoyang Hongwen Investment Company [49%],,Surface,17.98,170.0,Lignite,Thermal,24.6,0,0,0,0,0,0,0,0,0,0,0,0
M0339,Shenhua Baorixile Surface Coal Mine, ,China,coal,Operating,49.391925,119.746017,Exact,China Energy Baorixile Energy Company,China Energy [39%]; Guangda Holding Company [17%]; China National Petroleum Corporation [9%]; Changchun Jijun Trade Company [2%]; Others [33%],35,Surface,43.72,237.0,Lignite,Thermal,109.4,0,0,0,0,0,0,0,0,0,0,0,0
M0340,Shenhua Bulianta Coal Mine, ,China,coal,Operating,39.354814,110.168084,Exact,China Shenhua Energy,China Energy [69%]; HKSCC Nominees Limited [17%]; Others [14%],,Underground,106.43,456.0,Subbituminous,Thermal,143.3,0,0,0,0,0,0,0,0,0,0,0,0
M0341,Shenhua Heidaigou Surface Coal Mine, ,China,coal,Operating,39.794309,111.254573,Exact,Shenhua Junggar Energy,China Energy [40%]; China Cinda Asset Management Company [42%]; Others [18%],34,Surface,50.33,272.0,Subbituminous,Thermal,117.6,0,0,0,0,0,0,0,0,0,0,0,0
M0342,Shicaocun Coal Mine, ,China,coal,Operating,37.943405,106.696881,Exact,China Energy Ningxia Coal Industry Company,China Energy [51%]; Ningxia State-Owned Assets Company [49%],,Underground,31.4,456.0,Bituminous,Thermal,95.0,0,0,0,0,0,0,0,0,0,0,0,0
M0343,Shigetai Coal Mine, ,China,coal,Operating,39.412064,110.13213,Exact,China Shenhua Energy,China Energy [69%]; HKSCC Nominees Limited [17%]; Others [14%],,Underground,65.25,456.0,Subbituminous,Thermal,61.4,0,0,0,0,0,0,0,0,0,0,0,0
M0344,Shilawusu Coal Mine, ,China,coal,Operating,39.018006,109.621986,Exact,Inner Mongolia Haosheng Coal Industry Company,Shandong Energy [77%]; Shanghai Huayi Group [19%]; Jiutai Energy [2%]; Jinchengtai Limited Liability Company Of Chemical Industry of Ordos City [1%]; Others [1%],,Underground,71.2,456.0,Bituminous,Thermal,126.7,0,0,0,0,0,0,0,0,0,0,0,0
M0345,Shitoumei No.1 Coal Mine, ,China,coal,Operating,44.271559,93.057426,Approximate,Xinjiang Energy Group,Xinjiang Energy Group,,Surface,27.47,60.0,Bituminous,Thermal,19.5,0,0,0,0,1,1,1,0,0,0,0,0
M0345,Shitoumei No.1 Coal Mine, ,China,coal,Proposed,44.271559,93.057426,Approximate,Xinjiang Energy Group,Xinjiang Energy Group,,Surface,,60.0,Bituminous,Thermal,58.6,0,0,0,0,1,1,1,0,0,0,0,0
M0346,Shuangshan Coal Mine, ,China,coal,Operating,38.450227,109.954879,Exact,Shaanxi Tenghui Mining Company,Shaanxi Tenghui Mining Company,,Underground,11.24,456.0,Bituminous,Thermal,19.0,0,0,0,0,0,0,0,0,0,0,0,0
M0347,East Well of Sihe Coal Mine, ,China,coal,Operating,35.596726,112.522648,Exact,Jinneng Holding Equipment Manufacturing Group,Jinneng Group [70.06%]; China Development Bank（10.29%]; China Cinda Asset Management Company [13.65%],,Underground,91.2,456.0,Anthracite,Thermal,140.5,0,0,0,0,0,0,0,0,0,0,0,0
M0348,Sijiazhuang Coal Mine, ,China,coal,Operating,37.585557,113.621388,Exact,Yangquan Coal Industry Group,Huayang New Material Technology Group,,Underground,120.25,456.0,Anthracite,Thermal,126.4,0,0,0,0,0,0,0,0,0,0,0,0
M0349,Sitai Coal Mine, ,China,coal,Operating,40.094906,112.968816,Exact,Jinneng Holding Coal Industry Group,Jinneng Group [65.17%]; China Cinda Asset Management Company [30.12%]; Jinneng Group; Others [4.71%],,Underground,65.46,456.0,Bituminous,Thermal,28.5,0,0,0,0,0,0,0,0,0,0,0,0
M0350,Songxinzhuang Coal Mine, ,China,coal,Operating,37.491702,106.797794,Exact,Sinopec Great Wall Energy Chemical [Ningxia] Company,Sinopec Group,,Underground,30.7,456.0,Bituminous,Thermal,23.7,0,0,0,0,0,0,0,0,0,0,0,0
M0351,Suancigou Coal Mine, ,China,coal,Operating,39.705785,111.205624,Exact,Inner Mongolia Yitai Jingyue Suancigou Mining Company,Inner Mongolia Yitai Group [52%]; Shanxi Yuedian Energy [24%]; Beijing Jingneng Power Company [24%],,Underground,49.82,456.0,Bituminous,Thermal,316.6,0,0,0,0,0,0,0,0,0,0,0,0
M0352,Sunjiacha Coal Mine, ,China,coal,Operating,39.134249,110.347317,Exact,Sunjiacha Longhua Mining Company,Shaanxi Coal and Chemical Industry Group,,Underground,54.37,456.0,Bituminous,Thermal,158.3,0,0,0,0,0,0,0,0,0,0,0,0
M0353,Talahao Coal Mine, ,China,coal,Operating,39.79013,110.156685,Exact,Inner Mongolia Yitai Coal Company,Inner Mongolia Yitai Investment,,Underground,42.62,456.0,Bituminous,Thermal,190.0,0,0,0,0,0,0,0,0,0,0,0,0
M0354,Talike District No. 2 Coal Mine, ,China,coal,Proposed,41.979907,84.378789,Approximate,Bazhou Dongchen Industry and Trade Company,Bazhou Dongchen Industry and Trade Company,,Underground,17.45,456.0,Bituminous,,19.0,0,0,0,0,0,0,0,0,0,0,0,0
M0355,Tangjiahui Coal Mine, ,China,coal,Operating,39.947429,111.220258,Exact,Erdos Huaxing Energy,Huaihe Energy [62%]; China Cinda Asset Management [6%]; China Energy [1%]; Hawaii Motor [30%]; Others [1%],,Underground,28.57,456.0,Bituminous,Thermal,142.5,0,0,0,0,0,0,0,0,0,0,0,0
M0356,Taohe Coal Mine, ,China,coal,Proposed,46.798152,85.710006,Approximate,Hoboksar Mongol Autonomous County Huadi Mining Company,Shandong First Geological and Mineral Exploration Institute,,Underground,29.14,456.0,Bituminous,Thermal,19.0,0,0,0,0,0,0,0,0,0,0,0,0
M0357,Taran Gaole Coal Mine, ,China,coal,Proposed,39.996232,109.205991,Exact,China Energy,China Energy,,Underground,492.65,456.0,Bituminous,Thermal,158.3,0,0,0,0,0,0,0,0,0,0,0,0
M0358,Tashan Coal Mine, ,China,coal,Operating,39.924229,113.070254,Exact,Datong Datang Tashan Coal Mining Company,Jinneng Group [41%]; China Datang [9%]; HKSCC Nominees Limited [9%]; Others [41%],,Underground,170.9,456.0,Bituminous,Met,395.8,0,0,0,0,0,0,0,0,0,0,0,0
M0359,Tianshuibu No.2 Coal Mine, ,China,coal,Operating,37.089484,106.785417,Exact,Gansu Wansheng Mining Company,China Huadian,,Underground,26.62,456.0,Bituminous,Thermal,38.0,0,0,0,0,0,0,0,0,0,0,0,0
M0360,Tianye Coal Mine, ,China,coal,Proposed,43.924993,86.432538,Approximate,Xinjiang Tianmeng Huize Coal Development Company,State-Owned Assets Supervision and Administration Commission of the Eighth Division of Xinjiang Production and Construction Corporation,,Underground,,456.0,Bituminous,,38.0,0,0,0,0,0,0,0,0,0,0,0,0
M0361,Tiaohu No.3 Coal Mine, ,China,coal,Proposed,44.333899,93.274989,Exact,Barkun County Xinyuan Coal Company,Changchun Jiaye Investment Company [60%]; Shi Zhonglin [40%],,Underground,34.85,456.0,Bituminous,Thermal,19.0,0,0,0,0,1,1,1,1,0,0,0,0
M0362,Tingnan Coal Mine, ,China,coal,Operating,35.096062,107.943871,Exact,Shaanxi Changwu Tingnan Coal Industry Company,Shandong Energy,,Underground,35.55,456.0,Bituminous,Thermal,71.2,0,0,0,0,0,0,0,0,0,0,0,0
M0363,Tongxin Coal Mine, ,China,coal,Operating,40.013182,113.103349,Exact,Jinneng Holding Group Tongxin Coal Mine Shanxi Company,Jinneng Group [45.62%]; China Energy [30%]; China Cinda Asset Management Company [21.08%]; Others[3.3%],,Underground,85.12,456.0,Bituminous,Thermal & Met,253.3,0,0,0,0,0,0,0,0,0,0,0,0
M0364,Ulan Mulun Coal Mine, ,China,coal,Operating,39.457596,110.10216,Exact,China Energy Shendong Coal Group,China Energy [69%]; HKSCC Nominees Limited [17%]; Others [14%],,Underground,44.8,456.0,Bituminous,Thermal,80.7,0,0,0,0,0,0,0,0,0,0,0,0
M0365,Wangfeng Coal Mine, ,China,coal,Proposed,35.621389,110.473889,Exact,Shaanxi Shanmei Hancheng Mining Industry Company,Shaanxi Coal and Chemical Industry Group,,Underground,82.02,456.0,Bituminous,Thermal & Met,47.5,0,0,0,0,0,0,0,0,0,0,0,0
M0366,Wangjialing Coal Mine, ,China,coal,Operating,35.702102,110.686347,Exact,Shanxi Zhongmei Huajin Energy,China Coal [29%]; HKSCC Nominees Limited [15%]; Shanxi Coking Coal Group [25%]; Others [31%],,Underground,119.71,456.0,Bituminous,Met,118.7,0,0,0,0,0,0,0,0,0,0,0,0
M0367,Wangjiata Coal Mine, ,China,coal,Operating,39.676306,110.001415,Exact,Xin Neng Ming Company,Xin’ao Holding Investment Company [31%]; Hongchuang [Shenzhen] Investment Center [10%]; Langfang Heyuan Investment Center [8%]; Hebei Weiyuan Group [7%]; Others [44%],,Underground,56.67,456.0,Bituminous,Thermal,126.7,0,0,0,0,0,0,0,0,0,0,0,0
M0368,Wangwa Coal Mine, ,China,coal,Shelved,36.163732,106.616037,Exact,Ningxia Wangwa Coal Industry Company,Ningxia Wangwa Coal Industry Company,,Underground,39.7,456.0,Bituminous,Thermal,76.0,0,0,0,0,0,0,0,0,0,0,0,0
M0369,Wanli No.1 Coal Mine, ,China,coal,Operating,39.899571,109.917382,Exact,China Shenhua Energy,China Energy [69%]; HKSCC Nominees Limited [17%]; Others [14%],,Underground,91.37,456.0,Subbituminous,Thermal,51.2,0,0,0,0,0,0,0,0,0,0,0,0
M0370,Weijiamao Open Pit Mine, ,China,coal,Operating,39.534982,111.29515,Exact,North Weijiamao Coal Power Company,China Huaneng [42%]; Guangdong Hengjian Investment Holding Company; [8%] China Energy [3%]; China Securities Finance Corporation [3%]; Others [44%],,Surface,52.63,192.0,Bituminous,Thermal,140.6,0,0,0,0,0,0,0,0,0,0,0,0
M0371,Weizigou Coal Mine, ,China,coal,Proposed,43.963239,86.810238,Exact,China Coal Energy Xinjiang Hongxin Coal Industry Company,China Coal,,Underground,25.3,456.0,Bituminous,Thermal,38.0,0,0,0,0,0,0,0,0,0,0,0,0
M0372,Wenjiazhuang Coal Mine, ,China,coal,Operating,37.955791,113.217014,Exact,Shanxi Pingshu Coal Industry Company,Shanxi Huayang Group [56.31%]; Jinneng Group [13.44%]; Others [30.25%],,Underground,79.37,456.0,Anthracite,Thermal,140.5,0,0,0,0,0,0,0,0,0,0,0,0
M0373,West No. 1 Coal Mine, ,China,coal,Operating,44.654941,116.702955,Exact,China Resources Power [Xilinguole] Coal Industry Company,China Resources Holdings,,Underground,87.24,456.0,Lignite,Thermal,40.9,0,0,0,0,0,0,0,0,0,0,0,0
M0374,West Well of Faer Second Coal Mine, ,China,coal,Operating,26.31898,104.753785,Approximate,Guizhou Panjiang Hengpu Coal Industry Company,Guizhou Panjiang Coal and Electricity Group [58%]; Shandong Energy [12%]; Guizhou Coalfield Geology Bureau [10%]; Others [20%],,Underground,48.38,456.0,Bituminous,Thermal & Met,14.2,0,0,0,0,0,0,0,0,0,0,0,0
M0374,West Well of Faer Second Coal Mine, ,China,coal,Proposed,26.31898,104.753785,Approximate,Guizhou Panjiang Hengpu Coal Industry Company,Guizhou Panjiang Coal and Electricity Group [58%]; Shandong Energy [12%]; Guizhou Coalfield Geology Bureau [10%]; Others [20%],,Underground,,456.0,Bituminous,Thermal & Met,23.7,0,0,0,0,0,0,0,0,0,0,0,0
M0375,Wucaiwan No.1 Coal Mine, ,China,coal,Proposed,44.777239,89.098488,Exact,Xinjiang Guotai Xinhua Wucaiwan Mining Industry Company,Beijing Guotai Xinhua Industrial Company [19%]; Xinjiang Changyuan Water Group [14%]; Xinjiang Xinhua Hydropower Investment Company [14%]; Xinjiang Energy Group [5%]; Others [42%],,Underground,233.05,456.0,Bituminous,Thermal,95.0,0,0,0,0,0,0,0,0,0,0,0,0
M0376,Wucaiwan No.1 Surface Mine, ,China,coal,Operating,44.933507,89.184722,Exact,Xinjiang Yihua Mining,Zhejiang Xinhu Group Holding Company [34%]; Zhejiang Shenglong Industrial Company [6%]; Yichang Caiyuan Investment and Management Company [41%]; Yichang Xinfa Industry Investment Company [10%]; Hubei Yihua Chemical Company [7%]; Xinjiang Energy Group [2%],,Surface,43.87,50.0,Subbituminous,Thermal,17.9,0,0,0,0,0,0,0,0,0,0,0,0
M0377,Wudong Coal Mine, ,China,coal,Operating,43.929294,87.745344,Exact,China Energy Xinjiang Energy Company,China Energy,,Underground,20.28,456.0,Bituminous,Thermal,95.0,0,0,0,0,0,0,0,0,0,0,0,0
M0378,Wujiamao Coal Mine, ,China,coal,Proposed,37.274679,111.074265,Exact,Shanxi Fenxi Zhongtai Coal Industry Company,Shanxi Antai Group [29%]; Shanxi Coking Coal Group [30%]; China Cinda Asset Management Company [18%]; China Huarong Asset Management Company [1%]; China Construction Bank [1%]; Shanxi Qinxin Energy Group [20%]; Others [1%],,Underground,75.84,456.0,Bituminous,Met,47.5,0,0,0,0,0,0,0,0,0,0,0,0
M0379,Wuju Coal Mine, ,China,coal,Operating,35.063029,107.050604,Exact,Pingliang Wuju Coal Industry Company,Shandong Energy [60%]; Jiuquan Iron and Steel Group [24%]; Jiangsu Yueda Group [14%]; Others [2%],,Underground,29.5,456.0,Bituminous,Thermal,47.5,0,0,0,0,0,0,0,0,0,0,0,0
M0380,Wukuang Guishigou Coal Mine, ,China,coal,Operating,37.780264,113.598505,Exact,Yangquan Coal Industry Group,Huayang New Material Technology Group,,Underground,66,456.0,Anthracite,Thermal,126.4,0,0,0,0,0,0,0,0,0,0,0,0
M0381,Xiadian Coal Mine, ,China,coal,Operating,34.25723,112.726356,Exact,China Pingmei Shenma Group,Assets Supervision and Administration Commission of Henan Provincial People's Government [65%]; Baoshan Iron and Steel Company; [12%] China Huarong Asset Management Company [5%]; Others [18%],,Underground,26.4,456.0,Bituminous,Thermal,23.7,0,0,0,0,0,0,0,0,0,0,0,0
M0382,Xiaobaodang No.1 Coal Mine, ,China,coal,Operating,38.756195,109.893889,Exact,Shaanxi Xiaobaodang Mining Company,Shaanxi Coal and Chemical Industry Group [55%]; Shaanxi Investment Group [28%]; Others [17%],,Underground,101.56,456.0,Bituminous,Thermal,237.5,0,0,0,0,0,0,0,0,0,0,0,0
