Unit ID,Unit Name,Unit type,Country,Fuel type,Status,Latitude,Longitude,Location accuracy,Owner,Parent,Production (Mtpa),Mine Type,Mine Size (Km2),Mine Depth (m),Coal Type,Coal Grade,GEM Coal Mine Methane Emissions Estimate (MCM/yr),Month_1,Month_2,Month_3,Month_4,Month_5,Month_6,Month_7,Month_8,Month_9,Month_10,Month_11,Month_12
M0001,Shadashak Coal Mine, ,Afghanistan,coal,Operating,35.863255,67.596674,Approximate,North Coal Enterprise (NCE),North Coal Enterprise (NCE) [100%],1.1,Underground,,494.0,Bituminous,Met,24.1,58.29524,52.47874,42.295273,30.270578,19.769735,13.593021,13.454683,19.485975,29.88434,41.91111,52.326447,58.260414
M0002,Airly Coal Mine, ,Australia,coal,Operating,-33.1130709,150.0149367,Exact,Centennial Coal Company Pty Ltd,Banpu PCL [100.0%],1.17,Underground,40,500.0,Bituminous,Thermal,25.8,10.704762,16.52126,26.704725,38.729424,49.230267,55.40698,55.54532,49.514023,39.11566,27.08889,16.673552,10.739588
M0004,Angus Place Coal Mine, ,Australia,coal,Cancelled,-33.349157,150.199019,Exact,Centennial Springvale Pty Ltd [50%]; Boulder Mining Pty Ltd [50%],Banpu PCL [100.0%],,Underground,104.6,500.0,Subbituminous,Thermal,21.6,10.904762,16.72126,26.904726,38.92942,49.430264,55.60698,55.745316,49.714024,39.31566,27.28889,16.873552,10.939588
M0004,Angus Place Coal Mine, ,Australia,coal,Mothballed,-33.351985,150.099356,Exact,Centennial Springvale Pty Ltd [50%]; Boulder Mining Pty Ltd [50%],Banpu PCL [100.0%],0,Underground,,550.0,Subbituminous,Thermal,0.0,11.004762,16.82126,27.004725,39.029423,49.530266,55.706978,55.845318,49.814022,39.41566,27.388891,16.97355,11.039587
M0005,Appin Coal Mine, ,Australia,coal,Operating,-34.211194,150.792736,Exact,Illawarra Coal,South32 Ltd [100.0%],3.9,Underground,,550.0,Bituminous,Met,89.2,11.804762,17.62126,27.804726,39.829422,50.330265,56.506977,56.645317,50.614025,40.21566,28.18889,17.773552,11.839587
M0006,Aquila Coal Mine, ,Australia,coal,Operating,-22.9816055,148.5373229,Exact,Capcoal,Anglo American PLC [70.0%]; Mitsui & Co Ltd [30.0%],3.45,Underground,,175.0,Bituminous,Met,43.0,0.8322523,6.42126,16.604725,28.629421,39.130264,45.30698,45.445316,39.414024,29.01566,16.98889,6.5735517,0.8453274
M0007,Ashton Coal Mine, ,Australia,coal,Operating,-32.468942,151.078493,Exact,Ashton Coal Operations,Yancoal Australia Ltd [100.0%],0.9,Underground & Surface,3.15,200.0,Bituminous,Met,12.4,10.104762,15.92126,26.104725,38.12942,48.630264,54.80698,54.945316,48.914024,38.51566,26.48889,16.073551,10.139587
M0007,Ashton Coal Mine, ,Australia,coal,Cancelled,-32.468942,151.078493,Exact,Ashton Coal Operations,Yancoal Australia Ltd [100.0%],,Surface,,60.0,Bituminous,Thermal & Met,12.6,10.104762,15.92126,26.104725,38.12942,48.630264,54.80698,54.945316,48.914024,38.51566,26.48889,16.073551,10.139587
M0008,Baralaba Coal Mine, ,Australia,coal,Operating,-24.13680401,149.7936125,Exact,Baralaba Coal Co,AMCI Group [100.0%],1.571,Surface,,60.0,Bituminous,Thermal & Met,8.2,1.704762,7.52126,17.704725,29.729422,40.230267,46.40698,46.54532,40.514023,30.11566,18.08889,7.6735516,1.7395874
M0008,Baralaba Coal Mine, ,Australia,coal,Proposed,-24.15411438,149.8027197,Exact,Baralaba Coal Co,AMCI Group [100.0%],,Surface,22,60.0,Bituminous,Thermal & Met,10.5,1.804762,7.6212597,17.804726,29.829422,40.330265,46.506977,46.645317,40.614025,30.21566,18.18889,7.773552,1.8395875
M0009,Belview Coal Mine, ,Australia,coal,Shelved,-23.587132,148.977385,Exact,Stanmore Resources Ltd,Stanmore Resources Ltd [100%],,Underground,,500.0,Bituminous,Met,57.4,1.204762,7.02126,17.204725,29.229422,39.730267,45.90698,46.04532,40.014023,29.61566,17.58889,7.1735516,1.2395874
M0010,Bengalla Coal Mine, ,Australia,coal,Operating,-32.268076,150.84,Exact,Bengalla Mining Company,New Hope Group [80.0%]; Taiwan Power Co [20.0%],11.7,Surface,12,270.0,Subbituminous,Thermal,54.4,9.904762,15.72126,25.904726,37.92942,48.430264,54.60698,54.745316,48.714024,38.31566,26.28889,15.873551,9.939588
M0011,Blackwater Coal Mine, ,Australia,coal,Operating,-23.685585,148.807361,Exact,BHP Billiton Mitsubishi Alliance Pty Ltd,BHP Group Ltd [50.0%]; Mitsubishi Corp [50.0%],14.288,Surface,210,60.0,Bituminous,Thermal & Met,75.0,1.304762,7.1212597,17.304726,29.329422,39.830265,46.006977,46.145317,40.114025,29.71566,17.68889,7.2735515,1.3395875
M0012,Blair Athol Coal Mine, ,Australia,coal,Operating,-22.703221,147.54353,Exact,Orion Mining,TerraCom Ltd [100.0%],2.782,Surface,,50.0,Subbituminous,Thermal,3.3,0.79417264,6.1212597,16.304726,28.329422,38.830265,45.006977,45.145317,39.114025,28.71566,16.68889,6.2735515,0.7959784
M0013,Bloomfield Coal Mine, ,Australia,coal,Operating,-32.7928986,151.5841947,Exact,Bloomfield Collieries Pty Limited,Bloomfield Group [100.0%],0.52,Surface,,60.0,Bituminous,Thermal & Met,2.7,10.404762,16.22126,26.404726,38.42942,48.930264,55.10698,55.245316,49.214024,38.81566,26.78889,16.373552,10.439588
M0014,Boggabri Coal Mine, ,Australia,coal,Operating,-30.6116182,150.1550389,Exact,Boggabri Coal Operations,Idemitsu Kosan Co Ltd [100.0%],5.7,Surface,20.56,60.0,Bituminous,Thermal & Met,29.9,8.204762,14.02126,24.204725,36.229424,46.730267,52.90698,53.04532,47.014023,36.61566,24.58889,14.173552,8.239588
M0014,Boggabri Coal Mine, ,Australia,coal,Proposed,-30.6116182,150.1550389,Approximate,Boggabri Coal Operations,Idemitsu Kosan Co Ltd [100.0%],,Surface,,60.0,Bituminous,Thermal & Met,2.6,8.204762,14.02126,24.204725,36.229424,46.730267,52.90698,53.04532,47.014023,36.61566,24.58889,14.173552,8.239588
M0016,Broadmeadow Coal Mine, ,Australia,coal,Operating,-21.8025693,147.98,Exact,BM Alliance Coal Operations Pty Ltd,BHP [50.0%]; Mitsubishi Corp [50.0%],8.395,Underground,,500.0,Bituminous,Met,185.4,0.9956898,5.22126,15.404725,27.429422,37.930264,44.10698,44.245316,38.214024,27.81566,15.78889,5.373552,0.9742128
M0017,Bulga Coal Mine, ,Australia,coal,Proposed,-32.6795434,151.1000279,Exact,Bulga Coal Management [BCM],Glencore PLC [72.6%]; ENEOS Australia Pty Ltd [13.3%]; Nippon Steel Corp [12.5%],,Surface,0.2,90.0,Bituminous,Thermal,,10.304762,16.12126,26.304726,38.329422,48.830265,55.006977,55.145317,49.114025,38.71566,26.68889,16.273552,10.339587
M0017,Bulga Coal Mine, ,Australia,coal,Operating,-32.6795434,151.1000279,Exact,Bulga Coal Management [BCM],Glencore PLC [72.6%]; ENEOS Australia Pty Ltd [13.3%]; Nippon Steel Corp [12.5%],6.35,Underground & Surface,55,60.0,Bituminous,Thermal & Met,33.3,10.304762,16.12126,26.304726,38.329422,48.830265,55.006977,55.145317,49.114025,38.71566,26.68889,16.273552,10.339587
M0018,Byerwen Coal Mine, ,Australia,coal,Operating,-21.242828,147.835392,Exact,Byerwen Coal,QCoal [85.0%]; JFE Holdings Inc [15.0%],6.197,Surface,69.97,60.0,Bituminous,Thermal & Met,32.5,1.3360957,4.6212597,14.804726,26.829422,37.330265,43.506977,43.645317,37.614025,27.21566,15.18889,4.773552,1.3059655
M0019,Callide Coal Mine, ,Australia,coal,Operating,-24.310921,150.622173,Exact,Batchfire Resources,Batchfire Resources [100%],7.593,Surface,176,50.0,Subbituminous,Thermal,9.1,1.904762,7.72126,17.904726,29.929422,40.430264,46.60698,46.745316,40.714024,30.31566,18.28889,7.873552,1.9395874
M0020,Cameby Downs Coal Mine, ,Australia,coal,Proposed,-26.6540316,150.3354945,Exact,Syntech Resources,Shandong Energy Group Co Ltd [70.0%]; Shandong Guohui Investment Co Ltd [20.0%]; Shandong Caixin Asset Operation Co Ltd [10.0%],,Surface,79.11,50.0,Subbituminous,Thermal,3.6,4.304762,10.12126,20.304726,32.329422,42.830265,49.006977,49.145317,43.114025,32.71566,20.68889,10.273552,4.339587
M0020,Cameby Downs Coal Mine, ,Australia,coal,Operating,-26.6181915,150.3548193,Exact,Syntech Resources,Shandong Energy Group Co Ltd [70.0%]; Shandong Guohui Investment Co Ltd [20.0%]; Shandong Caixin Asset Operation Co Ltd [10.0%],2.86,Surface,,60.0,Bituminous,Thermal,15.0,4.204762,10.02126,20.204725,32.229424,42.730267,48.90698,49.04532,43.014023,32.61566,20.58889,10.173552,4.2395873
M0021,CapCoal Mine Complex, ,Australia,coal,Operating,-22.990997,148.580506,Exact,Capcoal,Anglo American PLC [70.0%]; Mitsui & Co Ltd [30.0%],8.403,Underground & Surface,340,60.0,Bituminous,Thermal & Met,44.1,0.8322523,6.42126,16.604725,28.629421,39.130264,45.30698,45.445316,39.414024,29.01566,16.98889,6.5735517,0.8453274
M0022,Carborough Downs Coal Mine, ,Australia,coal,Operating,-21.9502,148.2094,Exact,Fitzroy Australia Resources Pty Ltd,American Metals & Coal International Inc [50.0%]; ITOCHU Corp [50.0%],2.823,Underground,,500.0,Bituminous,Thermal & Met,62.3,0.91665596,5.42126,15.604725,27.629421,38.130264,44.30698,44.445316,38.414024,28.01566,15.98889,5.5735517,0.89921117
M0022,Carborough Downs Coal Mine, ,Australia,coal,Proposed,-21.9502,148.2094,Exact,Fitzroy Australia Resources Pty Ltd,American Metals & Coal International Inc [50.0%]; ITOCHU Corp [50.0%],,Underground,,500.0,Bituminous,Met,55.2,0.91665596,5.42126,15.604725,27.629421,38.130264,44.30698,44.445316,38.414024,28.01566,15.98889,5.5735517,0.89921117
M0023,Carmichael Coal Project, ,Australia,coal,Operating,-22.073611,146.329722,Approximate,Adani Mining Pty Ltd,Adani Enterprises Ltd [100.0%],2.794,Underground & Surface,447,300.0,Subbituminous,Thermal,14.8,0.88346386,5.52126,15.704725,27.729422,38.230267,44.40698,44.54532,38.514023,28.11566,16.08889,5.6735516,0.868246
M0023,Carmichael Coal Project, ,Australia,coal,Proposed,-22.073611,146.329722,Approximate,Adani Mining Pty Ltd,Adani Enterprises Ltd [100.0%],,Underground & Surface,447,60.0,Subbituminous,Thermal,43.2,0.88346386,5.52126,15.704725,27.729422,38.230267,44.40698,44.54532,38.514023,28.11566,16.08889,5.6735516,0.868246
M0023,Carmichael Coal Project, ,Australia,coal,Proposed,-22.073611,146.329722,Approximate,Adani Mining Pty Ltd,Adani Enterprises Ltd [100.0%],,Underground & Surface,447,400.0,Subbituminous,Thermal,115.2,0.88346386,5.52126,15.704725,27.729422,38.230267,44.40698,44.54532,38.514023,28.11566,16.08889,5.6735516,0.868246
M0024,Caval Ridge Coal Mine, ,Australia,coal,Operating,-22.1056069,148.0475444,Exact,BHP Billiton Mitsubishi Alliance Pty Ltd,BHP Group Ltd [50.0%]; Mitsubishi Corp [50.0%],14.894,Surface,14,60.0,Bituminous,Met,78.2,0.88346386,5.52126,15.704725,27.729422,38.230267,44.40698,44.54532,38.514023,28.11566,16.08889,5.6735516,0.868246
M0024,Caval Ridge Coal Mine, ,Australia,coal,Proposed,-22.1056069,148.0475444,Exact,BHP Billiton Mitsubishi Alliance Pty Ltd,BHP Group Ltd [50.0%]; Mitsubishi Corp [50.0%],,Surface,14,60.0,Bituminous,Met,78.8,0.88346386,5.52126,15.704725,27.729422,38.230267,44.40698,44.54532,38.514023,28.11566,16.08889,5.6735516,0.868246
M0025,Central Queensland Coal Mine, ,Australia,coal,Cancelled,-22.679446,149.659662,Exact,Central Queensland Coal Pty Ltd,Mineralogy Pty Ltd [100.0%],,Surface,,60.0,Bituminous,Thermal & Met,10.5,0.79417264,6.1212597,16.304726,28.329422,38.830265,45.006977,45.145317,39.114025,28.71566,16.68889,6.2735515,0.7959784
M0026,Clarence Colliery, ,Australia,coal,Operating,-33.4597,150.2479,Exact,Centennial Coal - Clarence Joint Venture,Banpu PCL [85.0%]; SK Energy [15.0%],1.42,Underground,,500.0,Bituminous,Thermal,31.4,11.104762,16.921259,27.104725,39.12942,49.630264,55.80698,55.945316,49.914024,39.51566,27.48889,17.073551,11.139587
M0027,Clermont Coal Mine, ,Australia,coal,Operating,-22.7201075,147.6195648,Exact,Clermont Coal Operations Pty Limited,Glencore PLC [37.1%]; Sumitomo Corp [37.1%]; J-Power Australia Pty Ltd [22.2%],10.85,Surface,163.07,60.0,Bituminous,Thermal,57.0,0.79417264,6.1212597,16.304726,28.329422,38.830265,45.006977,45.145317,39.114025,28.71566,16.68889,6.2735515,0.7959784
M0028,Collinsville Coal Mine, ,Australia,coal,Operating,-20.5567302,147.8148229,Exact,NC Coal Company Pty Ltd,Glencore PLC [100.0%],3.583,Surface,,60.0,Bituminous,Thermal & Met,18.8,1.8105568,4.02126,14.204725,26.229422,36.730267,42.90698,43.04532,37.014023,26.61566,14.58889,4.1735516,1.7762419
M0029,Commodore Coal Mine, ,Australia,coal,Operating,-27.9343501,151.2554422,Exact,Downer EDI,Downer EDI Ltd [100%],3.507,Surface,,60.0,Bituminous,Thermal,18.4,5.504762,11.3212595,21.504725,33.529423,44.030266,50.206978,50.345318,44.314022,33.91566,21.88889,11.473552,5.5395875
M0029,Commodore Coal Mine, ,Australia,coal,Proposed,-27.9343501,151.2554422,Exact,Downer EDI,Downer EDI Ltd [100%],,Surface,,60.0,Bituminous,Thermal,2.1,5.504762,11.3212595,21.504725,33.529423,44.030266,50.206978,50.345318,44.314022,33.91566,21.88889,11.473552,5.5395875
M0030,Cows Coal Mine, ,Australia,coal,Operating,-20.63668673,147.85009,Exact,QCoal,QCoal [100%],,Surface,,60.0,Bituminous,Thermal & Met,5.3,1.8105568,4.02126,14.204725,26.229422,36.730267,42.90698,43.04532,37.014023,26.61566,14.58889,4.1735516,1.7762419
M0031,Curragh Coal Mine, ,Australia,coal,Proposed,-23.493219,148.842723,Exact,Coronado Global Resources Inc,Coronado Global Resources Inc [100%],,Underground,,500.0,Bituminous,Thermal,,1.104762,6.92126,17.104725,29.129421,39.630264,45.80698,45.945316,39.914024,29.51566,17.48889,7.0735517,1.1395874
M0031,Curragh Coal Mine, ,Australia,coal,Operating,-23.493219,148.842723,Exact,Coronado Global Resources Inc,Coronado Global Resources Inc [100%],12.161,Surface,126,60.0,Bituminous,Thermal & Met,63.8,1.104762,6.92126,17.104725,29.129421,39.630264,45.80698,45.945316,39.914024,29.51566,17.48889,7.0735517,1.1395874
M0032,Daunia Coal Mine, ,Australia,coal,Operating,-22.0410919,148.2702015,Exact,BHP Billiton Mitsubishi Alliance Pty Ltd,BHP Group Ltd [50.0%]; Mitsubishi Corp [50.0%],3.651,Surface,,60.0,Bituminous,Thermal & Met,19.2,0.91665596,5.42126,15.604725,27.629421,38.130264,44.30698,44.445316,38.414024,28.01566,15.98889,5.5735517,0.89921117
M0033,Dawson Complex, ,Australia,coal,Operating,-24.6168211,150.0504833,Exact,Dawson Joint Venture,Anglo American PLC [51.0%]; Mitsui & Co Ltd [49.0%],6.087,Surface,,60.0,Bituminous,Thermal & Met,32.0,2.204762,8.02126,18.204725,30.229422,40.730267,46.90698,47.04532,41.014023,30.61566,18.58889,8.173552,2.2395873
M0034,Dendrobium Coal Mine, ,Australia,coal,Operating,-34.419776,150.826135,Exact,Illawarra Coal,South32 Ltd [100.0%],2.61,Underground,,350.0,Bituminous,Met,49.2,12.004762,17.82126,28.004726,40.029423,50.530266,56.706978,56.845318,50.814022,40.41566,28.388891,17.97355,12.039587
M0034,Dendrobium Extension Project, ,Australia,coal,Cancelled,-34.419776,150.826135,Exact,Illawarra Coal,South32 Ltd [100.0%],,Underground,,350.0,Bituminous,Met,,12.004762,17.82126,28.004726,40.029423,50.530266,56.706978,56.845318,50.814022,40.41566,28.388891,17.97355,12.039587
M0035,Drake Coal Mine, ,Australia,coal,Operating,-20.705189,147.812727,Exact,QCoal,QCoal [100%],5.312,Surface,,60.0,Bituminous,Thermal & Met,27.9,1.72346,4.1212597,14.304726,26.329422,36.830265,43.006977,43.145317,37.114025,26.71566,14.68889,4.2735515,1.6895753
M0036,Dysart East Coal Project, ,Australia,coal,Proposed,-22.550335,148.414404,Approximate,Mastermyne Group,Metarock Group Ltd [100%],,Underground,,500.0,Bituminous,Met,42.0,0.79500574,6.02126,16.204725,28.229422,38.730267,44.90698,45.04532,39.014023,28.61566,16.58889,6.1735516,0.7935059
M0037,Eagle Downs Coal Project, ,Australia,coal,Cancelled,-22.189318,148.204249,Exact,Aquila; South33,Aquila [100%],,Underground,45,500.0,Bituminous,Met,77.3,0.8545998,5.6212597,15.804726,27.829422,38.330265,44.506977,44.645317,38.614025,28.21566,16.18889,5.773552,0.8417531
M0037,Eagle Downs Coal Project, ,Australia,coal,Cancelled,-22.189318,148.204249,Exact,Aquila; South32,Aquila [100%],,Underground,45,500.0,Bituminous,Met,99.4,0.8545998,5.6212597,15.804726,27.829422,38.330265,44.506977,44.645317,38.614025,28.21566,16.18889,5.773552,0.8417531
M0038,Ensham Coal Mine, ,Australia,coal,Operating,-23.454464,148.497455,Exact,Sungela,Thungela Resources Ltd [75.0%]; Audley Energy Ltd [12.5%]; Mayfair Corporations Group Pty Ltd [12.5%],3.91,Underground & Surface,27.37,210.0,Subbituminous,Thermal,16.3,1.104762,6.92126,17.104725,29.129421,39.630264,45.80698,45.945316,39.914024,29.51566,17.48889,7.0735517,1.1395874
M0038,Ensham Coal Mine, ,Australia,coal,Proposed,-23.454464,148.497455,Exact,Sungela,Thungela Resources Ltd [75.0%]; Audley Energy Ltd [12.5%]; Mayfair Corporations Group Pty Ltd [12.5%],,Underground & Surface,,210.0,Subbituminous,Thermal,,1.104762,6.92126,17.104725,29.129421,39.630264,45.80698,45.945316,39.914024,29.51566,17.48889,7.0735517,1.1395874
M0039,Ewington Coal Mine, ,Australia,coal,Operating,-33.3624,116.25,Exact,Griffin Coal Mining Company Pty Ltd,Lanco Resources Australia Pty Ltd [100.0%],2,Surface,,60.0,Bituminous,Thermal & Met,10.5,11.004762,16.82126,27.004725,39.029423,49.530266,55.706978,55.845318,49.814022,39.41566,27.388891,16.97355,11.039587
M0040,Foxleigh Coal Mine, ,Australia,coal,Operating,-22.997778,148.803889,Exact,Middlemount South Limited,QMetco Ltd [100.0%],3.42,Surface,,60.0,Bituminous,Met,18.0,0.8322523,6.42126,16.604725,28.629421,39.130264,45.30698,45.445316,39.414024,29.01566,16.98889,6.5735517,0.8453274
M0041,Galilee Coal Mine, ,Australia,coal,Shelved,-23.498536,145.94229,Approximate,Waratah Coal Pty Ltd,Mineralogy Pty Ltd [100.0%],,Underground & Surface,120,60.0,Subbituminous,Thermal,54.0,1.104762,6.92126,17.104725,29.129421,39.630264,45.80698,45.945316,39.914024,29.51566,17.48889,7.0735517,1.1395874
M0042,Glendell Coal Mine, ,Australia,coal,Shelved,-32.45121527,151.0783194,Exact,Mt Owen Pty Limited,Glencore PLC [100.0%],,Surface,6.6,60.0,Bituminous,Thermal,28.9,10.104762,15.92126,26.104725,38.12942,48.630264,54.80698,54.945316,48.914024,38.51566,26.48889,16.073551,10.139587
M0042,Glendell Coal Mine, ,Australia,coal,Operating,-32.45121527,151.0783194,Exact,Mt Owen Pty Limited,Glencore PLC [100.0%],2.53,Surface,,60.0,Bituminous,Thermal,13.3,10.104762,15.92126,26.104725,38.12942,48.630264,54.80698,54.945316,48.914024,38.51566,26.48889,16.073551,10.139587
M0043,Goonyella-Riverside Coal Mine, ,Australia,coal,Operating,-21.792321,147.962045,Exact,BHP Billiton Mitsubishi Alliance Pty Ltd,BHP Group Ltd [50.0%]; Mitsubishi Corp [50.0%],22.152,Surface,,60.0,Bituminous,Met,116.3,0.9956898,5.22126,15.404725,27.429422,37.930264,44.10698,44.245316,38.214024,27.81566,15.78889,5.373552,0.9742128
M0044,Gregory Crinum Coal Mines, ,Australia,coal,Operating,-23.1491384,148.3875874,Exact,Sojitz Blue Pty Ltd,Sojitz Corp [100.0%],2.389,Underground & Surface,,85.0,Bituminous,Met,17.6,0.8603437,6.52126,16.704725,28.729422,39.230267,45.40698,45.54532,39.514023,29.11566,17.08889,6.6735516,0.87768847
M0044,Gregory Crinum Coal Mines, ,Australia,coal,Proposed,-23.1491384,148.3875874,Exact,Sojitz Blue Pty Ltd,Sojitz Corp [100.0%],,Underground & Surface,,85.0,Bituminous,Met,,0.8603437,6.52126,16.704725,28.729422,39.230267,45.40698,45.54532,39.514023,29.11566,17.08889,6.6735516,0.87768847
M0045,Grosvenor Coal Mine, ,Australia,coal,Operating,-21.97420531,148.0106197,Exact,Grosvenor,Anglo American PLC [88.0%]; Nippon Steel Corp [5.0%],1.993,Underground,,500.0,Bituminous,Met,44.0,0.91665596,5.42126,15.604725,27.629421,38.130264,44.30698,44.445316,38.414024,28.01566,15.98889,5.5735517,0.89921117
M0046,Hail Creek Coal Mine, ,Australia,coal,Operating,-21.484811,148.37,Exact,Hail Creek Coal Pty Ltd,Glencore PLC [84.7%]; Marubeni Corp [12.0%],10.784,Surface,210,60.0,Bituminous,Thermal & Met,56.6,1.1476734,4.92126,15.104725,27.129421,37.630264,43.80698,43.945316,37.914024,27.51566,15.48889,5.0735517,1.1212626
M0047,Hillalong Coal Mine, ,Australia,coal,Proposed,-21.416653,148.31,Exact,Shandong Energy Group Co Ltd,Shandong Provincial People's Government State-owned Assets Supervision and Administration Commission [70.0%]; Shandong Guohui Investment Co Ltd [20.0%]; Shandong Caixin Asset Operation Co Ltd [10.0%],,Underground & Surface,,160.0,Bituminous,Thermal & Met,49.7,1.2068901,4.82126,15.004725,27.029423,37.530266,43.706978,43.845318,37.814022,27.41566,15.38889,4.9735518,1.1791198
M0048,Hume Coal Mine, ,Australia,coal,Cancelled,-34.54081,150.284465,Exact,POSCO Holdings Inc,POSCO Holdings Inc [100%],,Underground,5,180.0,Bituminous,Thermal & Met,38.4,12.104762,17.921259,28.104725,40.12942,50.630264,56.80698,56.945316,50.914024,40.51566,28.48889,18.073551,12.139587
M0049,Hunter Valley North Coal Mine, ,Australia,coal,Operating,-32.4657844,150.9734981,Exact,Hunter Valley Operations,Yancoal Australia Ltd [51.0%]; Glencore PLC [49.0%],4.38,Surface,,60.0,Bituminous,Thermal & Met,23.0,10.104762,15.92126,26.104725,38.12942,48.630264,54.80698,54.945316,48.914024,38.51566,26.48889,16.073551,10.139587
M0050,Hunter Valley South Coal Mine, ,Australia,coal,Operating,-32.5245107,150.9819012,Exact,Hunter Valley Operations,Yancoal Australia Ltd [51.0%]; Glencore PLC [49.0%],7.55,Surface,,60.0,Bituminous,Thermal & Met,39.6,10.104762,15.92126,26.104725,38.12942,48.630264,54.80698,54.945316,48.914024,38.51566,26.48889,16.073551,10.139587
M0051,Hutton Coal Mine, ,Australia,coal,Cancelled,-25.951645,148.961201,Exact,Valiant Resources Ltd,Valiant Resources Ltd [100%],,Underground,1469,500.0,Bituminous,Met,529.9,3.604762,9.42126,19.604725,31.629421,42.130264,48.30698,48.445316,42.414024,32.01566,19.98889,9.573552,3.6395874
M0051,Hutton Coal Mine, ,Australia,coal,Cancelled,-25.951645,148.961201,Exact,Valiant Resources Ltd,Valiant Resources Ltd [100%],,Underground,1469,500.0,Bituminous,Met,529.9,3.604762,9.42126,19.604725,31.629421,42.130264,48.30698,48.445316,42.414024,32.01566,19.98889,9.573552,3.6395874
M0052,Ironbark No. 1 Coal Mine, ,Australia,coal,Operating,-21.97648262,148.2346531,Approximate,Fitzroy Australia Resources Pty Ltd,American Metals & Coal International Inc [50.0%]; ITOCHU Corp [50.0%],0.18,Underground,100,400.0,Bituminous,Thermal & Met,3.6,0.91665596,5.42126,15.604725,27.629421,38.130264,44.30698,44.445316,38.414024,28.01566,15.98889,5.5735517,0.89921117
M0053,Isaac Downs Coal Mine, ,Australia,coal,Operating,-21.97936646,148.1290409,Exact,Stanmore IP South Pty Ltd,Stanmore Resources Ltd [100.0%],4.21,Surface,,60.0,Bituminous,Thermal & Met,22.1,0.91665596,5.42126,15.604725,27.629421,38.130264,44.30698,44.445316,38.414024,28.01566,15.98889,5.5735517,0.89921117
M0054,Isaac Plains East Coal Mine, ,Australia,coal,Mothballed,-21.9718375,148.1132931,Exact,Stanmore Resources Ltd,Stanmore Resources Ltd [100%],2.38,Surface,,60.0,Bituminous,Met,12.5,0.91665596,5.42126,15.604725,27.629421,38.130264,44.30698,44.445316,38.414024,28.01566,15.98889,5.5735517,0.89921117
M0055,Jax Coal Mine, ,Australia,coal,Operating,-20.713736,147.860166,Exact,Thiess,Thiess Group Holdings Pty Ltd [100.0%],2.151,Surface,,60.0,Bituminous,Thermal & Met,11.3,1.72346,4.1212597,14.304726,26.329422,36.830265,43.006977,43.145317,37.114025,26.71566,14.68889,4.2735515,1.6895753
M0056,Jellinbah Coal Mine, ,Australia,coal,Operating,-23.406874,148.950644,Exact,Golding Contractors,NRW Holdings Ltd [100.0%],4.963,Surface,,30.0,Bituminous,Met,14.1,1.0119482,6.82126,17.004725,29.029423,39.530266,45.706978,45.845318,39.814022,29.41566,17.38889,6.9735518,1.0443465
M0057,Karin Coal Mine, ,Australia,coal,Proposed,-23.058371,147.581142,Exact,Vitrinite,Vitrinite [100%],,Underground & Surface,,115.0,Bituminous,Met,16.0,0.8603437,6.52126,16.704725,28.729422,39.230267,45.40698,45.54532,39.514023,29.11566,17.08889,6.6735516,0.87768847
M0058,Kestrel Coal Mine, ,Australia,coal,Operating,-23.236333,148.3583273,Exact,Kestrel Coal Resources,EMR Capital Pty Ltd [52.0%]; PT Adaro Energy Indonesia Tbk [48.0%],7.392,Underground,,250.0,Bituminous,Thermal & Met,115.9,0.8984565,6.6212597,16.804726,28.829422,39.330265,45.506977,45.645317,39.614025,29.21566,17.18889,6.7735515,0.9204051
M0059,Kogan Creek Coal Mine, ,Australia,coal,Operating,-26.9384276,150.7743816,Exact,Golding Contractors,NRW Holdings Ltd [100.0%],2.589,Surface,,50.0,Subbituminous,Thermal,3.1,4.504762,10.3212595,20.504725,32.529423,43.030266,49.206978,49.345318,43.314022,32.91566,20.88889,10.473552,4.5395875
M0060,Lake Vermont Coal Mine, ,Australia,coal,Proposed,-22.3894938,148.3769527,Approximate,Jellinbah Group Pty Ltd,Anglo American PLC [33.0%],,Underground & Surface,82.35,60.0,Bituminous,Thermal & Met,,0.8143591,5.82126,16.004725,28.029423,38.530266,44.706978,44.845318,38.814022,28.41566,16.38889,5.9735518,0.8068378
M0060,Lake Vermont Coal Mine, ,Australia,coal,Operating,-22.4611726,148.4056045,Exact,Jellinbah Group Pty Ltd,Anglo American PLC [33.0%],11.156,Surface,8.2,30.0,Bituminous,Thermal & Met,31.8,0.80187833,5.92126,16.104725,28.129421,38.630264,44.80698,44.945316,38.914024,28.51566,16.48889,6.0735517,0.79727423
M0062,Loy Yang Coal Mine, ,Australia,coal,Operating,-38.2347,146.564,Exact,AGL Loy Yang Pty Ltd,AGL Energy Ltd [100.0%],,Surface,12,200.0,Subbituminous,Thermal,105.0,15.804762,21.62126,31.804726,43.829422,54.330265,60.506977,60.645317,54.614025,44.21566,32.18889,21.773552,15.839587
M0063,Mandalong Coal Mine, ,Australia,coal,Proposed,-33.119111,151.461844,Exact,Centennial Mandalong Pty Ltd,Banpu PCL [100.0%],,Underground,,330.0,Subbituminous,Thermal,2.8,10.704762,16.52126,26.704725,38.729424,49.230267,55.40698,55.54532,49.514023,39.11566,27.08889,16.673552,10.739588
M0063,Mandalong Coal Mine, ,Australia,coal,Operating,-33.119111,151.461844,Exact,Centennial Mandalong Pty Ltd,Banpu PCL [100.0%],2.68,Underground,,300.0,Bituminous,Thermal,46.8,10.704762,16.52126,26.704725,38.729424,49.230267,55.40698,55.54532,49.514023,39.11566,27.08889,16.673552,10.739588
M0064,Mangoola Coal Mine, ,Australia,coal,Operating,-32.294922,150.706712,Exact,Mangoola Coal Operations Pty Ltd,Glencore PLC [100.0%],7.69,Surface,,50.0,Subbituminous,Thermal,9.2,9.904762,15.72126,25.904726,37.92942,48.430264,54.60698,54.745316,48.714024,38.31566,26.28889,15.873551,9.939588
M0064,Mangoola Coal Mine, ,Australia,coal,Proposed,-32.294922,150.706712,Exact,Mangoola Coal Operations Pty Ltd,Glencore PLC [100.0%],,Surface,,50.0,Subbituminous,Thermal,6.0,9.904762,15.72126,25.904726,37.92942,48.430264,54.60698,54.745316,48.714024,38.31566,26.28889,15.873551,9.939588
M0065,Maules Creek Coal Mine, ,Australia,coal,Operating,-30.562606,150.11498,Exact,Maules Creek Joint Venture,Whitehaven Coal Ltd [75.0%]; ITOCHU Corp [15.0%]; J-POWER Co Ltd [10.0%],9.372,Surface,16,300.0,Bituminous,Thermal & Met,153.2,8.204762,14.02126,24.204725,36.229424,46.730267,52.90698,53.04532,47.014023,36.61566,24.58889,14.173552,8.239588
M0066,Maxwell Coal Mine, ,Australia,coal,Operating,-32.433479,150.824735,Exact,Malabar Resources,Malabar Resources [100%],,Underground,,500.0,Bituminous,Met,176.6,10.004762,15.8212595,26.004725,38.029423,48.530266,54.706978,54.845318,48.814022,38.41566,26.38889,15.973552,10.039587
M0067,Meandu Coal Mine, ,Australia,coal,Operating,-26.813543,151.911523,Exact,BUMA Australia,PT Bukit Makmur Mandiri Utama [100.0%],6.841,Surface,,50.0,Subbituminous,Thermal,8.2,4.404762,10.22126,20.404726,32.42942,42.930264,49.10698,49.245316,43.214024,32.81566,20.78889,10.373551,4.4395876
M0067,Meandu Coal Mine, ,Australia,coal,Proposed,-26.813543,151.911523,Exact,TEC Coal Pty Ltd,PT Bukit Makmur Mandiri Utama [100.0%],,Surface,,50.0,Subbituminous,Thermal,6.4,4.404762,10.22126,20.404726,32.42942,42.930264,49.10698,49.245316,43.214024,32.81566,20.78889,10.373551,4.4395876
M0068,Meteor Downs South Coal Mine (MDS), ,Australia,coal,Operating,-24.433867,148.385912,Approximate,Sojitz Blue Pty Ltd,Sojitz Corp [100.0%],1.389,Surface,,60.0,Bituminous,Thermal,7.3,2.004762,7.82126,18.004725,30.02942,40.530266,46.706978,46.845318,40.814022,30.41566,18.38889,7.9735518,2.0395875
M0069,Middlemount Coal Mine, ,Australia,coal,Operating,-22.848131,148.631626,Exact,Middlemount Coal Limited,Peabody Energy Corp [50.0%]; Yancoal Australia Ltd [50.0%],4.27,Surface,28,50.0,Subbituminous,Thermal & Met,5.1,0.7998123,6.22126,16.404726,28.429422,38.930264,45.10698,45.245316,39.214024,28.81566,16.78889,6.373552,0.8051394
M0071,Minyango Coking Coal Project, ,Australia,coal,Cancelled,-23.497583,148.807134,Approximate,QCoal,QCoal [100%],,Underground,,500.0,Bituminous,Thermal & Met,132.5,1.104762,6.92126,17.104725,29.129421,39.630264,45.80698,45.945316,39.914024,29.51566,17.48889,7.0735517,1.1395874
M0072,Moolarben Coal Mine, ,Australia,coal,Operating,-32.2828165,149.7591596,Exact,Moolarben Coal Operations,Yancoal Australia Ltd [95.0%]; Kores Australia Moolarben Coal Pty Ltd [5.0%],16.9,Underground & Surface,110,150.0,Subbituminous,Thermal,54.1,9.904762,15.72126,25.904726,37.92942,48.430264,54.60698,54.745316,48.714024,38.31566,26.28889,15.873551,9.939588
M0072,Moolarben Coal Mine, ,Australia,coal,Proposed,-32.2828165,149.7591596,Exact,Moolarben Coal Operations,Yancoal Australia Ltd [95.0%]; Kores Australia Moolarben Coal Pty Ltd [5.0%],,Surface,8.26,125.0,Subbituminous,Thermal,24.5,9.904762,15.72126,25.904726,37.92942,48.430264,54.60698,54.745316,48.714024,38.31566,26.28889,15.873551,9.939588
M0073,Moorlands Coal Mine, ,Australia,coal,Shelved,-22.816656,147.379922,Approximate,Cuesta Coal,Cuesta Coal [100%],,Surface,1000,50.0,Subbituminous,Thermal,2.3,0.7998123,6.22126,16.404726,28.429422,38.930264,45.10698,45.245316,39.214024,28.81566,16.78889,6.373552,0.8051394
M0074,Moranbah North Coal Mine, ,Australia,coal,Operating,-21.871331,147.956742,Exact,Moranbah North,Anglo American PLC [88.0%]; Nippon Steel Corp [5.0%]; Mitsui & Co Ltd [4.7%],4.124,Underground,67.61,200.0,Bituminous,Met,56.7,0.95375437,5.32126,15.504725,27.529423,38.030266,44.206978,44.345318,38.314022,27.91566,15.88889,5.4735518,0.93421286
M0075,Mount Arthur Coal Mine, ,Australia,coal,Operating,-32.337022,150.856144,Exact,Hunter Valley Energy Coal,BHP Group Ltd [100.0%],19.82,Surface,64,60.0,Bituminous,Thermal,104.1,9.904762,15.72126,25.904726,37.92942,48.430264,54.60698,54.745316,48.714024,38.31566,26.28889,15.873551,9.939588
M0076,Mount Pleasant Coal Mine, ,Australia,coal,Proposed,-32.25591661,150.8499847,Exact,Integrated Energy Services Corp,Integrated Energy Services Corp [100%],,Surface,28,60.0,Bituminous,Thermal,34.1,9.904762,15.72126,25.904726,37.92942,48.430264,54.60698,54.745316,48.714024,38.31566,26.28889,15.873551,9.939588
M0076,Mount Pleasant Coal Mine, ,Australia,coal,Operating,-32.25591661,150.8499847,Exact,Mach Energy,Integrated Energy Services Corp [100%],9.99,Surface,28,60.0,Bituminous,Thermal,52.4,9.904762,15.72126,25.904726,37.92942,48.430264,54.60698,54.745316,48.714024,38.31566,26.28889,15.873551,9.939588
M0077,Mt Owen Coal Mine, ,Australia,coal,Operating,-32.4066392,151.085603,Exact,Mt Owen Pty Ltd,Glencore PLC [100.0%],7.4,Surface,,270.0,Bituminous,Thermal & Met,114.3,10.004762,15.8212595,26.004725,38.029423,48.530266,54.706978,54.845318,48.814022,38.41566,26.38889,15.973552,10.039587
M0078,Mt Thorley Warkworth Coal Mine, ,Australia,coal,Proposed,-32.60700995,151.0901636,Approximate,Coal & Allied,Yancoal Australia Ltd [100.0%],,Underground,,500.0,Bituminous,Thermal & Met,132.5,10.204762,16.02126,26.204725,38.229424,48.730267,54.90698,55.04532,49.014023,38.61566,26.58889,16.173552,10.239588
M0078,Mt Thorley Warkworth Coal Mine, ,Australia,coal,Operating,-32.60700995,151.0901636,Exact,Coal & Allied,Yancoal Australia Ltd [100.0%],8.1,Surface,,60.0,Bituminous,Thermal & Met,42.5,10.204762,16.02126,26.204725,38.229424,48.730267,54.90698,55.04532,49.014023,38.61566,26.58889,16.173552,10.239588
M0079,Muswellbrook No. 2 Coal Mine, ,Australia,coal,Shelved,-32.244988,150.941392,Exact,Idemitsu Australia Resources Pty Ltd,Idemitsu Kosan Co Ltd [100.0%],,Surface,,60.0,Bituminous,,71.4,9.804762,15.62126,25.804726,37.829422,48.330265,54.506977,54.645317,48.614025,38.21566,26.18889,15.773552,9.839587
M0080,Myuna Coal Mine, ,Australia,coal,Operating,-33.060111,151.568738,Exact,Centennial Myuna Pty Ltd,Banpu PCL [100.0%],1.05,Underground,,120.0,Subbituminous,Thermal,2.9,10.704762,16.52126,26.704725,38.729424,49.230267,55.40698,55.54532,49.514023,39.11566,27.08889,16.673552,10.739588
M0081,Narrabri Coal Mine, ,Australia,coal,Proposed,-30.51820371,149.8976794,Exact,Narrabri Coal Joint Venture,Whitehaven Coal Ltd [77.5%]; J-POWER Co Ltd [7.5%]; Upper Horn Investments Ltd [7.5%]; Daewoo Co Ltd [5.0%],,Underground,10,380.0,Bituminous,Thermal,,8.104762,13.92126,24.104725,36.12942,46.630264,52.80698,52.945316,46.914024,36.51566,24.48889,14.073551,8.139587
M0081,Narrabri Coal Mine, ,Australia,coal,Operating,-30.51820371,149.8976794,Exact,Narrabri Coal Joint Venture,Whitehaven Coal Ltd [77.5%]; J-POWER Co Ltd [7.5%]; Upper Horn Investments Ltd [7.5%]; Daewoo Co Ltd [5.0%],4.795,Underground,10,200.0,Bituminous,Thermal,66.0,8.104762,13.92126,24.104725,36.12942,46.630264,52.80698,52.945316,46.914024,36.51566,24.48889,14.073551,8.139587
M0082,New Acland Coal Mine, ,Australia,coal,Proposed,-27.278281,151.710176,Exact,New Acland Coal Pty Limited,New Hope Corp Ltd [100.0%],,Surface,,60.0,Bituminous,Thermal,14.2,4.9047623,10.72126,20.904726,32.92942,43.430264,49.60698,49.745316,43.714024,33.31566,21.28889,10.873551,4.9395876
M0082,New Acland Coal Mine, ,Australia,coal,Operating,-27.278281,151.710176,Exact,New Acland Coal Pty Limited,New Hope Corp Ltd [100.0%],0.98,Surface,,50.0,Subbituminous,Thermal,1.2,4.9047623,10.72126,20.904726,32.92942,43.430264,49.60698,49.745316,43.714024,33.31566,21.28889,10.873551,4.9395876
M0083,Newlands Coal Mine, ,Australia,coal,Operating,-21.201424,147.887969,Exact,Newlands Coal Pty Ltd,Glencore PLC [100.0%],7.802,Surface,1578.65,60.0,Bituminous,Thermal & Met,41.0,1.3360957,4.6212597,14.804726,26.829422,37.330265,43.506977,43.645317,37.614025,27.21566,15.18889,4.773552,1.3059655
M0084,Newstan Coal Mine, ,Australia,coal,Proposed,-32.978628,151.574319,Exact,Centennial Newstan Pty Ltd,Banpu PCL [100.0%],,Underground,,500.0,Bituminous,Thermal & Met,35.3,10.604762,16.421259,26.604725,38.62942,49.130264,55.30698,55.445316,49.414024,39.01566,26.98889,16.573551,10.639587
M0085,Oaky Creek Coal Mine, ,Australia,coal,Operating,-23.072256,148.483994,Exact,Glencore PLC,Glencore PLC [100%],5.769,Underground,,350.0,Bituminous,Met,108.9,0.8603437,6.52126,16.704725,28.729422,39.230267,45.40698,45.54532,39.514023,29.11566,17.08889,6.6735516,0.87768847
M0086,Olive Downs Coal Mine, ,Australia,coal,Operating,-22.2204628,148.4033203,Approximate,Pembroke Resources,Pembroke Resources [100%],,Surface,,60.0,Bituminous,Met,78.8,0.8545998,5.6212597,15.804726,27.829422,38.330265,44.506977,44.645317,38.614025,28.21566,16.18889,5.773552,0.8417531
M0087,Peak Downs Coal Mine, ,Australia,coal,Operating,-22.2548999,148.1796569,Exact,BHP Billiton Mitsubishi Alliance Pty Ltd,BHP Group Ltd [50.0%]; Mitsubishi Corp [50.0%],18.544,Surface,,60.0,Bituminous,Met,97.4,0.83201915,5.72126,15.904725,27.929422,38.430264,44.60698,44.745316,38.714024,28.31566,16.28889,5.873552,0.82175314
M0087,Peak Downs Coal Mine, ,Australia,coal,Proposed,-22.2548999,148.1796569,Exact,BHP Billiton Mitsubishi Alliance Pty Ltd,BHP Group Ltd [50.0%]; Mitsubishi Corp [50.0%],,Surface,,60.0,Bituminous,Met,47.3,0.83201915,5.72126,15.904725,27.929422,38.430264,44.60698,44.745316,38.714024,28.31566,16.28889,5.873552,0.82175314
M0088,Poitrel Coal Mine, ,Australia,coal,Operating,-22.06650421,148.2551254,Exact,Stanmore SMC Pty Ltd,Stanmore Resources Ltd [100.0%],5.422,Surface,,60.0,Bituminous,Met,28.5,0.88346386,5.52126,15.704725,27.729422,38.230267,44.40698,44.54532,38.514023,28.11566,16.08889,5.6735516,0.868246
M0089,Premier Coal Mine, ,Australia,coal,Operating,-33.391728,116.286509,Exact,Yancoal Australia Ltd,Yancoal Australia Ltd [100%],2.8,Surface,130,50.0,Subbituminous,Thermal & Met,3.4,11.004762,16.82126,27.004725,39.029423,49.530266,55.706978,55.845318,49.814022,39.41566,27.388891,16.97355,11.039587
M0090,Range Coal Project, ,Australia,coal,Cancelled,-26.230392,150.272257,Exact,Stanmore Resources Ltd,Stanmore Resources Ltd [100%],,Surface,52.26,60.0,Bituminous,Thermal,26.3,3.804762,9.62126,19.804726,31.829422,42.330265,48.506977,48.645317,42.614025,32.21566,20.18889,9.773552,3.8395875
M0091,Ravensworth Coal Mine, ,Australia,coal,Operating,-32.4426478,151.0063967,Exact,Ravensworth Operations Pty Limited,Glencore PLC [100.0%],12.8,Surface,,60.0,Bituminous,Thermal,67.2,10.004762,15.8212595,26.004725,38.029423,48.530266,54.706978,54.845318,48.814022,38.41566,26.38889,15.973552,10.039587
M0092,Red Hill Coal Project, ,Australia,coal,Shelved,-21.764098,148.005592,Exact,BHP Billiton Mitsubishi Alliance Pty Ltd,BHP Group Ltd [50.0%]; Mitsubishi Corp [50.0%],,Underground,,500.0,Bituminous,Met,309.1,0.9956898,5.22126,15.404725,27.429422,37.930264,44.10698,44.245316,38.214024,27.81566,15.78889,5.373552,0.9742128
M0093,Rix Creek Coal Mine, ,Australia,coal,Operating,-32.52393559,151.1208768,Exact,Bloomfield Collieries Pty Ltd,Bloomfield Group [100.0%],5.15,Underground & Surface,,60.0,Bituminous,Thermal & Met,27.0,10.104762,15.92126,26.104725,38.12942,48.630264,54.80698,54.945316,48.914024,38.51566,26.48889,16.073551,10.139587
M0093,Rix Creek Coal Mine, ,Australia,coal,Proposed,-32.52393559,151.1208768,Exact,Bloomfield Collieries Pty Ltd,Bloomfield Group [100.0%],,Underground & Surface,,60.0,Bituminous,Thermal & Met,,10.104762,15.92126,26.104725,38.12942,48.630264,54.80698,54.945316,48.914024,38.51566,26.48889,16.073551,10.139587
M0094,Rolleston Coal Mine, ,Australia,coal,Operating,-24.456609,148.404902,Exact,Rolleston Coal Holdings Pty Ltd,Glencore PLC,13.02,Surface,363,60.0,Bituminous,Thermal,68.4,2.104762,7.92126,18.104725,30.129421,40.630264,46.80698,46.945316,40.914024,30.51566,18.48889,8.073552,2.1395874
M0094,Rolleston Coal Mine, ,Australia,coal,Shelved,-24.456609,148.404902,Exact,Rolleston Coal Holdings Pty Ltd,Glencore PLC,,Surface,5.6,60.0,Bituminous,Thermal,26.3,2.104762,7.92126,18.104725,30.129421,40.630264,46.80698,46.945316,40.914024,30.51566,18.48889,8.073552,2.1395874
M0095,Russell Vale Colliery, ,Australia,coal,Mothballed,-34.35566,150.89169,Exact,Wollongong Resources Pty Ltd,Jindal Group [100.0%],,Underground,6.4,500.0,Bituminous,Met,16.3,12.004762,17.82126,28.004726,40.029423,50.530266,56.706978,56.845318,50.814022,40.41566,28.388891,17.97355,12.039587
M0096,Saraji Coal Mine, ,Australia,coal,Operating,-22.371371,148.299848,Exact,BHP Billiton Mitsubishi Alliance Pty Ltd,BHP Group Ltd [50.0%]; Mitsubishi Corp [50.0%],13.995,Surface,120,60.0,Bituminous,Thermal & Met,73.5,0.8143591,5.82126,16.004725,28.029423,38.530266,44.706978,44.845318,38.814022,28.41566,16.38889,5.9735518,0.8068378
M0097,Saraji East Coal Mine, ,Australia,coal,Proposed,-22.371371,148.299848,Exact,BHP Billiton Mitsubishi Alliance Pty Ltd,BHP Group Ltd [50.0%]; Mitsubishi Corp [50.0%],,Underground,,35.0,Bituminous,Met,18.8,0.8143591,5.82126,16.004725,28.029423,38.530266,44.706978,44.845318,38.814022,28.41566,16.38889,5.9735518,0.8068378
M0098,Sonoma Coal Mine, ,Australia,coal,Operating,-20.62,147.86,Exact,QCoal,QCoal [100%],0.83,Surface,,60.0,Bituminous,Thermal & Met,4.4,1.8105568,4.02126,14.204725,26.229422,36.730267,42.90698,43.04532,37.014023,26.61566,14.58889,4.1735516,1.7762419
M0099,South Walker Creek Coal Mine, ,Australia,coal,Operating,-21.753393,148.443289,Exact,Stanmore SMC Pty Ltd,Stanmore Resources Ltd [100.0%],8.007,Surface,,60.0,Bituminous,Met,42.0,0.9956898,5.22126,15.404725,27.429422,37.930264,44.10698,44.245316,38.214024,27.81566,15.78889,5.373552,0.9742128
M0101,Springsure Creek Coal Project, ,Australia,coal,Shelved,-24.008602,148.372046,Approximate,Adamelia Resources,Adamelia Resources [100%],,Underground,107,500.0,Bituminous,Thermal,110.4,1.604762,7.42126,17.604725,29.629421,40.130264,46.30698,46.445316,40.414024,30.01566,17.98889,7.5735517,1.6395874
M0101,Springsure Creek Coal Project, ,Australia,coal,Shelved,-24.008602,148.372046,Approximate,Adamelia Resources,Adamelia Resources [100%],,Underground,107,500.0,Bituminous,Thermal,132.5,1.604762,7.42126,17.604725,29.629421,40.130264,46.30698,46.445316,40.414024,30.01566,17.98889,7.5735517,1.6395874
M0102,Springvale Coal Mine, ,Australia,coal,Operating,-33.4006,150.105627,Exact,Centennial Springvale Pty Ltd; Boulder Mining Pty Ltd,Banpu PCL [100.0%],2.32,Underground,,500.0,Subbituminous,Thermal,16.7,11.004762,16.82126,27.004725,39.029423,49.530266,55.706978,55.845318,49.814022,39.41566,27.388891,16.97355,11.039587
M0103,Tahmoor Coal Mine, ,Australia,coal,Operating,-34.2532732,150.5753104,Exact,Tahmoor Coal,SIMEC Mining Pty Ltd,,Underground,,500.0,Bituminous,Met,88.3,11.904762,17.72126,27.904726,39.92942,50.430264,56.60698,56.745316,50.714024,40.31566,28.28889,17.873552,11.939588
M0105,Tarrawonga Coal Mine, ,Australia,coal,Operating,-30.639584,150.167277,Exact,Tarrawonga Coal Pty Ltd,Whitehaven Coal Ltd [100.0%],1.67,Surface,,180.0,Subbituminous,Thermal & Met,5.8,8.204762,14.02126,24.204725,36.229424,46.730267,52.90698,53.04532,47.014023,36.61566,24.58889,14.173552,8.239588
M0106,Ulan Complex Coal Mine, ,Australia,coal,Operating,-32.242539,149.749697,Exact,Ulan Coal Mines Ltd,Glencore PLC [100.0%],10.79,Underground,137,225.0,Bituminous,Thermal,157.1,9.804762,15.62126,25.804726,37.829422,48.330265,54.506977,54.645317,48.614025,38.21566,26.18889,15.773552,9.839587
M0107,United Wambo Coal Mine, ,Australia,coal,Operating,-32.549369,150.984787,Exact,United Collieries and Wambo Coal,Peabody Energy Corp [50.0%]; Glencore PLC,5.67,Surface,,60.0,Bituminous,Thermal & Met,29.8,10.104762,15.92126,26.104725,38.12942,48.630264,54.80698,54.945316,48.914024,38.51566,26.48889,16.073551,10.139587
M0108,Valeria Coal Mine, ,Australia,coal,Cancelled,-23.470142,148.033559,Approximate,Valeria Coal Holdings Pty Ltd,Glencore PLC [100.0%],,Surface,283,60.0,Bituminous,Thermal & Met,105.0,1.104762,6.92126,17.104725,29.129421,39.630264,45.80698,45.945316,39.914024,29.51566,17.48889,7.0735517,1.1395874
M0109,Valeria South Coal Mine, ,Australia,coal,Cancelled,-23.3407382,147.85037,Approximate,Valeria Coal Holdings Pty Ltd,Glencore PLC [100.0%],,Surface,,60.0,Bituminous,Thermal & Met,7.4,0.9476107,6.72126,16.904726,28.929422,39.430264,45.60698,45.745316,39.714024,29.31566,17.28889,6.873552,0.97453105
M0110,Vickery Coal Mine, ,Australia,coal,Proposed,-30.76467,150.17894,Exact,Vickery Coal Pty Ltd,Whitehaven Coal Ltd [100.0%],,Surface,30,250.0,Bituminous,Met,66.2,8.404762,14.22126,24.404726,36.42942,46.930264,53.10698,53.245316,47.214024,36.81566,24.78889,14.373551,8.439588
M0110,Vickery Coal Mine, ,Australia,coal,Proposed,-30.76467,150.17894,Exact,Vickery Coal Pty Ltd,Whitehaven Coal Ltd [100.0%],,Surface,30,250.0,Bituminous,Met,80.9,8.404762,14.22126,24.404726,36.42942,46.930264,53.10698,53.245316,47.214024,36.81566,24.78889,14.373551,8.439588
M0111,Wallarah 2 Coal Project, ,Australia,coal,Shelved,-33.223341,151.390511,Exact,Wyong Areas Coal Joint Venture,Korea Mine Rehabilitation & Mineral Resources Corp [82.2%]; Centennial Wallarah Pty Ltd [5.0%],,Underground,,255.0,Subbituminous,Thermal,18.6,10.804762,16.62126,26.804726,38.829422,49.330265,55.506977,55.645317,49.614025,39.21566,27.18889,16.773552,10.839587
M0112,Walton Coal Mine, ,Australia,coal,Cancelled,-23.58232637,149.2181492,Approximate,Walton Coal,Walton Coal [100%],,Surface,,60.0,Bituminous,Met,8.4,1.204762,7.02126,17.204725,29.229422,39.730267,45.90698,46.04532,40.014023,29.61566,17.58889,7.1735516,1.2395874
M0113,Wambo Underground Coal Mine, ,Australia,coal,Operating,-32.575524,151.006688,Exact,Wambo Coal Pty Ltd,Peabody Energy Corp [75.0%]; Sumiseki Holdings Inc,2,Underground,,500.0,Bituminous,Thermal & Met,44.2,10.204762,16.02126,26.204725,38.229424,48.730267,54.90698,55.04532,49.014023,38.61566,26.58889,16.173552,10.239588
M0114,Wards Well Coal Mine, ,Australia,coal,Proposed,-21.598813,147.958654,Exact,Stanmore Resources Ltd,Stanmore Resources Ltd [100%],,Underground,,500.0,Bituminous,Met,110.4,1.0928347,5.02126,15.204725,27.229422,37.730267,43.90698,44.04532,38.014023,27.61566,15.58889,5.1735516,1.0679293
M0115,Watermark Coal Mine, ,Australia,coal,Cancelled,-31.226757,150.438691,Approximate,Shenhua Group,China Energy Investment Corp [100.0%],,Surface,40.84,60.0,Bituminous,Thermal,31.5,8.804762,14.62126,24.804726,36.829422,47.330265,53.506977,53.645317,47.614025,37.21566,25.18889,14.773552,8.839587
M0116,Werris Creek Coal Mine, ,Australia,coal,Operating,-31.40698,150.6395,Exact,Werris Creek Coal Pty Ltd,Whitehaven Coal Ltd [100.0%],1.67,Surface,,190.0,Bituminous,Thermal & Met,20.8,9.004762,14.8212595,25.004725,37.029423,47.530266,53.706978,53.845318,47.814022,37.41566,25.38889,14.973552,9.039587
M0117,Wilpinjong Coal Mine, ,Australia,coal,Operating,-32.332,149.885,Exact,Wilpinjong Coal Pty Ltd,Peabody Energy Corp,13.28,Surface,,60.0,Bituminous,Thermal,69.7,9.904762,15.72126,25.904726,37.92942,48.430264,54.60698,54.745316,48.714024,38.31566,26.28889,15.873551,9.939588
M0117,Wilpinjong Coal Mine, ,Australia,coal,Proposed,-32.319056,149.867537,Exact,Wilpinjong Coal Pty Ltd,Peabody Energy Corp,,Surface,8,60.0,Bituminous,Thermal,5.3,9.904762,15.72126,25.904726,37.92942,48.430264,54.60698,54.745316,48.714024,38.31566,26.28889,15.873551,9.939588
M0118,Wilton and Fairhill Coal Projects, ,Australia,coal,Proposed,-23.41261,148.576971,Approximate,Futura Resources [50.00%]; Sojitz Development Pty Ltd [50.00%],Futura Resources [100%],,Surface,,60.0,Bituminous,Met,13.7,1.0119482,6.82126,17.004725,29.029423,39.530266,45.706978,45.845318,39.814022,29.41566,17.38889,6.9735518,1.0443465
M0119,Winchester South Coal Mine, ,Australia,coal,Proposed,-22.1508629,148.1757381,Exact,Whitehaven WS Pty Ltd,Whitehaven Coal Ltd [100.0%],,Surface,,160.0,Bituminous,Met,166.5,0.8545998,5.6212597,15.804726,27.829422,38.330265,44.506977,44.645317,38.614025,28.21566,16.18889,5.773552,0.8417531
M0120,Yallourn Coal Mine, ,Australia,coal,Operating,-38.195064,146.360402,Exact,EnergyAustralia Pty Ltd,CLP Holdings Ltd [100.0%],14.08,Surface,140,133.0,Lignite,Thermal,38.0,15.804762,21.62126,31.804726,43.829422,54.330265,60.506977,60.645317,54.614025,44.21566,32.18889,21.773552,15.839587
M0121,Yarrabee Coal Mine, ,Australia,coal,Operating,-23.317678,149.026371,Exact,Yanzhou Coal Mining Co,Shandong Energy Group Co Ltd [70.0%]; Shandong Guohui Investment Co Ltd [20.0%]; Shandong Caixin Asset Operation Co Ltd [10.0%],2.95,Surface,,60.0,Bituminous,Thermal & Met,15.5,0.9476107,6.72126,16.904726,28.929422,39.430264,45.60698,45.745316,39.714024,29.31566,17.28889,6.873552,0.97453105
M0122,Barapukuria Coal Mine, ,Bangladesh,coal,Operating,25.547269,88.96062,Exact,Petrobangla,Petrobangla [100%],0.75,Underground,,328.0,Bituminous,Thermal,13.7,47.895237,42.07874,31.895275,19.870579,9.369735,3.193021,3.054683,9.085977,19.48434,31.51111,41.92645,47.860413
M0122,Barapukuria Coal Mine, ,Bangladesh,coal,Shelved,25.547269,88.96062,Exact,Petrobangla,Petrobangla [100%],,Underground,,328.0,Bituminous,Thermal,9.1,47.895237,42.07874,31.895275,19.870579,9.369735,3.193021,3.054683,9.085977,19.48434,31.51111,41.92645,47.860413
M0123,Dighipara Coal Mine, ,Bangladesh,coal,Proposed,25.416667,89.083333,Exact,Petrobangla,Petrobangla [100%],,Surface,5.03,60.0,Bituminous,Thermal,15.8,47.79524,41.97874,31.795275,19.770578,9.269735,3.0930212,2.954683,8.985976,19.38434,31.41111,41.826447,47.760414
M0124,Phulbari Coal Mine, ,Bangladesh,coal,Proposed,25.9468733,89.5532405,Approximate,Global Coal Management Resources [GCM]; PowerChina,GCM Resources PLC [100.0%],,Surface,,60.0,Bituminous,Thermal,84.0,48.29524,42.47874,32.295273,20.270578,9.769735,3.5930212,3.454683,9.485976,19.88434,31.91111,42.326447,48.260414
M0125,Vrtliste Coal Mine, ,Bosnia and Herzegovina,coal,Operating,44.14001979,18.09803137,Exact,RMU Kakanj doo,Elektroprivreda BiH dd [90.4%]; others [9.6%],0.76,Surface,,50.0,Subbituminous,Thermal,0.9,66.49524,60.67874,50.495274,38.470577,27.969736,21.793022,21.654682,27.685976,38.08434,50.11111,60.526447,66.46041
M0126,Kreka Coal Mine, ,Bosnia and Herzegovina,coal,Operating,44.52,18.606111,Approximate,RMU Kreka doo,Elektroprivreda BiH dd [90.4%]; others [9.6%],1.29,Underground & Surface,,50.0,Lignite,Thermal,1.5,66.89524,61.07874,50.895275,38.87058,28.369736,22.193022,22.054684,28.085976,38.48434,50.51111,60.92645,66.86041
M0127,Masama Coal Mine, ,Botswana,coal,Operating,-24.053219,25.8876081,Exact,Minergy Ltd,Minergy Ltd [100%],1.2,Underground & Surface,67,130.0,Bituminous,Thermal,12.3,1.704762,7.52126,17.704725,29.729422,40.230267,46.40698,46.54532,40.514023,30.11566,18.08889,7.6735516,1.7395874
M0128,Mmamabula Coal Mine, ,Botswana,coal,Proposed,-23.609295,26.774952,Approximate,Maatla Resources,Maatla Resources [100%],,Underground & Surface,43,60.0,Bituminous,Thermal,7.3,1.204762,7.02126,17.204725,29.229422,39.730267,45.90698,46.04532,40.014023,29.61566,17.58889,7.1735516,1.2395874
M0130,Guaíba Coal Mine, ,Brazil,coal,Shelved,-30.015319,-51.532337,Approximate,Copelmi Mineração Ltda,Copelmi Mineração Ltda [100%],,Surface,,50.0,Subbituminous,Thermal,8.6,7.604762,13.42126,23.604725,35.62942,46.130264,52.30698,52.445316,46.414024,36.01566,23.98889,13.573551,7.6395874
M0131,Butiá Leste Mine, ,Brazil,coal,Operating,-30.102394,-51.938235,Exact,Copelmi Mineração Ltda,Copelmi Mineração Ltda [100%],1.02,Surface,,50.0,Subbituminous,Thermal,1.2,7.704762,13.52126,23.704725,35.729424,46.230267,52.40698,52.54532,46.514023,36.11566,24.08889,13.673552,7.7395873
M0132,Seival Coal Mine, ,Brazil,coal,Operating,-31.449159,-53.707527,Exact,Copelmi Mineração Ltda,Copelmi Mineração Ltda [100%],2.12,Surface,,50.0,Subbituminous,Thermal,2.5,9.004762,14.8212595,25.004725,37.029423,47.530266,53.706978,53.845318,47.814022,37.41566,25.38889,14.973552,9.039587
M0134,Han Seng Coal Mine, ,Cambodia,coal,Operating,14.1857983,104.3192826,Approximate,Han Seng Coal Mine Co,Han Seng Coal Mine Co [100%],0.06,Underground,,494.0,Lignite,Thermal,0.4,36.595238,30.77874,20.595274,8.570579,2.7128727,8.106978,8.2453165,2.8215525,8.1843405,20.21111,30.626448,36.560413
M0135,Aries Coal Mine, ,Canada,coal,Cancelled,52.400401,-114.830002,Approximate,Ram River Coal,Ram River Coal [100%],,Surface,200,60.0,Bituminous,Met,21.0,74.795235,68.97874,58.795277,46.770576,36.269733,30.093021,29.954683,35.985977,46.38434,58.41111,68.82645,74.760414
M0136,Bingay Coal Mine, ,Canada,coal,Cancelled,50.197546,-114.975588,Exact,Centermount,Centermount [100%],,Surface,4.2,60.0,Bituminous,Met,5.3,72.59524,66.77874,56.595276,44.57058,34.069736,27.89302,27.754683,33.785976,44.18434,56.21111,66.62645,72.56041
M0137,Brule Coal Mine, ,Canada,coal,Operating,55.38667,-121.82,Exact,ERP Compliant Fuels,ERP Compliant Fuels [100%],1.65,Surface,35.24,60.0,Bituminous,Thermal & Met,8.7,77.795235,71.97874,61.795277,49.770576,39.269733,33.09302,32.95468,38.985977,49.38434,61.41111,71.82645,77.760414
M0138,Coal Valley Coal Mine, ,Canada,coal,Operating,53.0518755,-116.7982727,Approximate,Prairie Mines and Royalty LLC,Westmoreland Coal Co [100.0%],1.92,Surface,206.6,60.0,Bituminous,Thermal,10.1,75.49524,69.67874,59.495274,47.470577,36.969734,30.793022,30.654682,36.685978,47.08434,59.11111,69.52645,75.46041
M0138,Robb Trend Coal Mine Expansion Project, ,Canada,coal,Cancelled,53.0518755,-116.7982727,Approximate,Prairie Mines and Royalty LLC,Westmoreland Coal Co [100.0%],,Surface,57.28,50.0,Subbituminous,Thermal,,75.49524,69.67874,59.495274,47.470577,36.969734,30.793022,30.654682,36.685978,47.08434,59.11111,69.52645,75.46041
M0139,Crown Mountain Coal Project, ,Canada,coal,Proposed,49.8066666,-114.7266666,Approximate,NWP Coal Canada,Jameson Resources [77.9%]; Bathurst Resources Ltd [22.1%],,Surface,12.8,60.0,Bituminous,Met,10.0,72.19524,66.37874,56.195274,44.170578,33.669735,27.493021,27.354683,33.385975,43.78434,55.81111,66.22645,72.160416
M0140,Elkview Coal Mine, ,Canada,coal,Operating,49.742507,-114.823906,Exact,Teck Coal Partnership,Teck Resources Ltd [100.0%],5.2,Surface,124,60.0,Bituminous,Met,27.3,72.09524,66.27874,56.095276,44.07058,33.569736,27.39302,27.254683,33.285976,43.68434,55.71111,66.12645,72.06041
M0141,Estevan Coal Mine, ,Canada,coal,Operating,49.092848,-102.886072,Exact,Prairie Mines and Royalty LLC,Westmoreland Coal Co [100.0%],4.34,Surface,203,50.0,Subbituminous,Thermal,5.2,71.49524,65.67874,55.495274,43.470577,32.969734,26.793022,26.654682,32.685978,43.08434,55.11111,65.52645,71.46041
M0142,Fording River Operations, ,Canada,coal,Operating,50.19284,-114.86473,Exact,Teck Coal Partnership,Teck Resources Ltd [100.0%],7.99,Surface,198,60.0,Bituminous,Met,42.0,72.59524,66.77874,56.595276,44.57058,34.069736,27.89302,27.754683,33.785976,44.18434,56.21111,66.62645,72.56041
M0143,Genesee Coal Mine, ,Canada,coal,Operating,53.314555,-114.286386,Exact,Capital Power LP; Westmoreland Mining LLC,Capital Power LP [100%],5,Surface,74,50.0,Subbituminous,Thermal,6.0,75.69524,69.87874,59.695274,47.670578,37.169735,30.993021,30.854683,36.885975,47.28434,59.31111,69.72645,75.660416
M0144,Gething Coal Mine, ,Canada,coal,Shelved,56.038803,-122.305087,Exact,CKD Mines,CKD Mines [100%],,Underground,,494.0,Bituminous,Met,65.8,78.39524,72.57874,62.395275,50.37058,39.869736,33.69302,33.554684,39.585976,49.98434,62.01111,72.426445,78.36041
M0145,Grassy Mountain Coal Project, ,Canada,coal,Cancelled,49.68924,-114.41896,Approximate,Northback Holdings,Hancock Corp [100.0%],,Surface,15,430.0,Bituminous,Met,87.8,72.09524,66.27874,56.095276,44.07058,33.569736,27.39302,27.254683,33.285976,43.68434,55.71111,66.12645,72.06041
M0146,Greenhills Coal Mine, ,Canada,coal,Operating,50.20028,-115.0083,Exact,Teck Coal Partnership; POSCO Canada Ltd,Teck Resources Ltd [100.0%],6.27,Surface,126,60.0,Bituminous,Met,32.9,72.59524,66.77874,56.595276,44.57058,34.069736,27.89302,27.754683,33.785976,44.18434,56.21111,66.62645,72.56041
M0148,Huguenot Surface Coal Mine, ,Canada,coal,Shelved,55.000742,-120.829716,Approximate,Colonial Coal International Corp,Colonial Coal International Corp [100%],,Surface,75.92,60.0,Bituminous,Met,14.2,77.39524,71.57874,61.395275,49.37058,38.869736,32.69302,32.554684,38.585976,48.98434,61.01111,71.426445,77.36041
M0149,Huguenot Underground Coal Mine, ,Canada,coal,Shelved,55.000742,-120.829716,Approximate,Colonial Coal International Corp,Colonial Coal International Corp [100%],,Underground,75.92,494.0,Bituminous,Met,6.6,77.39524,71.57874,61.395275,49.37058,38.869736,32.69302,32.554684,38.585976,48.98434,61.01111,71.426445,77.36041
M0150,Line Creek Coal Mine, ,Canada,coal,Operating,49.917,-114.776,Exact,Teck Coal Partnership,Teck Resources Ltd [100.0%],3.24,Surface,82,60.0,Bituminous,Thermal & Met,17.0,72.295235,66.47874,56.295273,44.270576,33.769733,27.593021,27.454683,33.485977,43.88434,55.91111,66.32645,72.260414
M0151,Michel Coal Project, ,Canada,coal,Proposed,49.729272,-114.867851,Exact,North Coal,North Coal [100%],,Surface,140,60.0,Bituminous,Met,10.5,72.09524,66.27874,56.095276,44.07058,33.569736,27.39302,27.254683,33.285976,43.68434,55.71111,66.12645,72.06041
M0152,Murray River Coal Mine, ,Canada,coal,Proposed,55.141319,-121.0796155,Approximate,HD Mining,HD Mining International [100.0%],,Underground,160,800.0,Bituminous,Met,125.2,77.49524,71.67874,61.495274,49.470577,38.969734,32.793022,32.654682,38.685978,49.08434,61.11111,71.52645,77.46041
M0154,Poplar River Coal Mine, ,Canada,coal,Operating,49.2127113,-105.4714202,Exact,Prairie Mines and Royalty LLC,Westmoreland Coal Co [100.0%],3.3,Surface,74.88,50.0,Lignite,Thermal,4.0,71.59524,65.77874,55.595276,43.57058,33.069736,26.89302,26.754683,32.785976,43.18434,55.21111,65.62645,71.56041
M0156,Sukunka Coal Mine, ,Canada,coal,Cancelled,55.1964,-121.569,Approximate,Glencore PLC,Glencore PLC [100%],,Underground & Surface,80.56,60.0,Bituminous,Met,16.8,77.59524,71.77874,61.595276,49.57058,39.069736,32.89302,32.754684,38.785976,49.18434,61.21111,71.62645,77.56041
M0157,Tent Mountain Coal Mine, ,Canada,coal,Cancelled,49.5542903,-114.707508,Exact,Evolve Power Ltd,Evolve Power Ltd [100%],,Surface,,60.0,Bituminous,Met,5.8,71.99524,66.17874,55.995274,43.970577,33.469734,27.293022,27.154682,33.185978,43.58434,55.61111,66.02645,71.96041
M0158,Vista Coal Mine, ,Canada,coal,Operating,53.3961117,-117.6478052,Exact,Coalspur Mines Ltd,VE Holdings LLC [100.0%],6.95,Surface,99.84,60.0,Bituminous,Thermal,36.5,75.795235,69.97874,59.795277,47.770576,37.269733,31.093021,30.954683,36.985977,47.38434,59.41111,69.82645,75.760414
M0158,Vista Coal Mine, ,Canada,coal,Proposed,53.3961117,-117.6478052,Approximate,Coalspur Mines Ltd,VE Holdings LLC [100.0%],,Surface,6.29,50.0,Subbituminous,Thermal,5.0,75.795235,69.97874,59.795277,47.770576,37.269733,31.093021,30.954683,36.985977,47.38434,59.41111,69.82645,75.760414
M0158,Vista Coal Mine, ,Canada,coal,Proposed,53.3961117,-117.6478052,Approximate,Coalspur Mines Ltd,VE Holdings LLC [100.0%],,Surface,,50.0,Subbituminous,Thermal,,75.795235,69.97874,59.795277,47.770576,37.269733,31.093021,30.954683,36.985977,47.38434,59.41111,69.82645,75.760414
M0159,Willow Creek Coal Mine, ,Canada,coal,Operating,55.6218806,-122.2174581,Exact,ERP Compliant Fuels,ERP Compliant Fuels [100%],0.98,Surface,,50.0,Bituminous,Thermal & Met,4.4,77.99524,72.17874,61.995274,49.970577,39.469734,33.293022,33.154682,39.185978,49.58434,61.61111,72.02645,77.96041
M0160,Wolverine Coal Mine, ,Canada,coal,Operating,55.0608535,-121.2530692,Exact,ERP Compliant Fuels,ERP Compliant Fuels [100%],1.01,Surface,10.47,60.0,Bituminous,Met,5.3,77.49524,71.67874,61.495274,49.470577,38.969734,32.793022,32.654682,38.685978,49.08434,61.11111,71.52645,77.46041
M0161,Wolverine-Hermann Coal Mine, ,Canada,coal,Proposed,55.0608535,-121.2530692,Approximate,ERP Compliant Fuels,ERP Compliant Fuels [100%],,Surface,,60.0,Bituminous,Met,5.3,77.49524,71.67874,61.495274,49.470577,38.969734,32.793022,32.654682,38.685978,49.08434,61.11111,71.52645,77.46041
M0163,Aimin Wendu Coal Mine, ,China,coal,Proposed,43.7025,120.771111,Exact,Inner Mongolia Pingmei Ar Khorchin Banner Coal Mine Company,Hebei Qian'an Chemical Company,,Underground,11.98,350.0,Lignite,Thermal,5.3,66.09524,60.27874,50.095276,38.07058,27.569735,21.39302,21.254683,27.285976,37.68434,49.71111,60.12645,66.06041
M0164,Anhui Banji Coal Mine, ,China,coal,Operating,32.899945,116.228774,Exact,China Coal Xinji Energy,China Coal [30%]; China Energy [5%]; Jingneng Power [1%]; Beijing Energy [6%]; Guohua Industry [3%]; Huainan Industial Development Group [7%]; China Shipping [5%],,Underground,33.6,456.0,Bituminous,Met,47.5,55.29524,49.47874,39.295273,27.270578,16.769735,10.593021,10.454683,16.485977,26.88434,38.91111,49.326447,55.260414
M0165,Anjialing Open-Pit Mine, ,China,coal,Operating,39.449488,112.360569,Exact,China Coal Pingshuo Group,China Coal [57%]; HKSCC Nominees Limited [30%]; Others [13%],,Surface,,60.0,Bituminous,Thermal,78.1,61.79524,55.97874,45.795273,33.770576,23.269735,17.093021,16.954683,22.985975,33.38434,45.41111,55.826447,61.760414
M0166,Antaibao Surface Mine, ,China,coal,Operating,39.474754,112.311939,Exact,China Coal Pingshuo Group,China Coal [57%]; HKSCC Nominees Limited [30%]; Others [13%],,Surface,,60.0,Bituminous,,78.1,61.895237,56.07874,45.895275,33.87058,23.369736,17.193022,17.054684,23.085976,33.48434,45.51111,55.92645,61.860413
M0167,Ba Leng Coal Mine, ,China,coal,Proposed,38.474786,106.668299,Approximate,Etuoke Qianqi Hengyuan Investment Industrial Company,Jinneng Group,,Underground,82.2,456.0,Bituminous,Thermal,126.7,60.895237,55.07874,44.895275,32.87058,22.369736,16.193022,16.054684,22.085976,32.48434,44.51111,54.92645,60.860413
M0168,Baijia Haizi Coal Mine, ,China,coal,Proposed,38.356604,108.950826,Approximate,Inner Mongolia Ordos Lianhai Coal Industry Company,Inner Mongolia Huineng Coal and Electricity Group [60%]; Inner Mongolia Ordos Investment Holding Group [38%]; Bayannaoer Zhuoyue Building Materials Company [1%],,Underground,169.19,456.0,Bituminous,Thermal,237.5,60.79524,54.97874,44.795273,32.770576,22.269735,16.093021,15.954683,21.985975,32.38434,44.41111,54.826447,60.760414
M0169,Bailongshan No. 1 Coal Mine, ,China,coal,Proposed,25.166667,104.566667,Exact,Huaneng Diandong Mining Company,China Huaneng [34%]; Shanghua Investment Company [8%]; HKSCC Nominees Limited [25%]; HeBei Construction & Investment Group [3%]; Others [30%],,Underground,17.85,456.0,Anthracite,Thermal,84.3,47.595238,41.77874,31.595276,19.570578,9.069736,2.893021,2.754683,8.785976,19.18434,31.21111,41.62645,47.560413
M0170,Baishihu Surface Mine, ,China,coal,Operating,43.902992,94.665857,Exact,Yiwu Gunaghui Mining Company,Guanghui Energy Holding Company [94%]; Xinjiang Guanghui Industry Investment Group [5%]; Xinjiang Production and Construction Corps [1%],,Surface,33.09,30.0,Bituminous,Thermal,38.2,66.295235,60.47874,50.295273,38.270576,27.769735,21.593021,21.454683,27.485975,37.88434,49.91111,60.326447,66.260414
M0171,Baishupo Coal Mine, ,China,coal,Proposed,39.725303,111.335131,Exact,Zhungeer Banner Baishupo Coal Company,Zhangjiagang Free Trade Zone Liyuan Energy Investment [11%]; Shanxi Coking Coal Group [7%]; Shanxi Financial Investment Holding Group [9%]; Mizuki Hongdao [Beijing] Asset Management Company [6%]; Inner Mongolia Jinyue Energy Group [8%]; Others [59%],,Underground,5.71,456.0,Bituminous,Thermal,19.0,62.095238,56.27874,46.095276,34.07058,23.569735,17.39302,17.254683,23.285976,33.68434,45.71111,56.12645,62.060413
M0172,Baiyanghe Coal Mine, ,China,coal,Proposed,44.048539,88.529268,Exact,Xinjiang Mingji Energy Company,Shandong Lutai Holding Group [75%]; Ming Kei Energy Investment Company [25%],,Underground,20.57,456.0,Bituminous,Thermal,19.0,66.39524,60.57874,50.395275,38.37058,27.869736,21.693022,21.554684,27.585976,37.98434,50.01111,60.42645,66.36041
M0173,Baiyinhua Haizhou No. 4 Surface Mine, ,China,coal,Operating,44.947927,118.666974,Exact,Inner Mongolia Baiyinhua Haizhou Surface Mine Company,Liaoning Energy Industry Holding Group [83%]; China Huaneng [5%],,Surface,25,456.0,Lignite,Thermal,10.0,67.295235,61.47874,51.295273,39.270576,28.769735,22.593021,22.454683,28.485975,38.88434,50.91111,61.326447,67.260414
M0173,Baiyinhua Haizhou No. 4 Surface Mine, ,China,coal,Operating,44.947927,118.666974,Exact,Inner Mongolia Baiyinhua Haizhou Surface Mine Company,Liaoning Energy Industry Holding Group [83%]; China Huaneng [5%],,Underground,,456.0,Lignite,Thermal,40.9,67.295235,61.47874,51.295273,39.270576,28.769735,22.593021,22.454683,28.485975,38.88434,50.91111,61.326447,67.260414
M0174,Baiyinhua No. 2 Surface Mine, ,China,coal,Operating,44.809523,118.500466,Exact,Inner Mongolia Xilin Gol Baiyinhua Coal and Electricity Company,State Power Investment Corporation [SPIC] [91.2%]; Huolinhe Coal Industry Group [8%]; Others [1%],,Surface,25.81,272.0,Lignite,Thermal,51.9,67.19524,61.37874,51.195274,39.170578,28.669735,22.493021,22.354683,28.385977,38.78434,50.81111,61.226448,67.160416
M0175,Baiyinhua No.1 Surface Mine, ,China,coal,Operating,44.786827,118.455621,Exact,Inner Mongolia Pingxi Baiyinhua Coal Industry Group,China Energy [51%]; China Cinda Asset Management [32%]; Chifeng City Economic and Information Commission [17%],,Surface,19.92,50.0,Lignite,Thermal,10.7,67.19524,61.37874,51.195274,39.170578,28.669735,22.493021,22.354683,28.385977,38.78434,50.81111,61.226448,67.160416
M0176,Baiyinhua No.3 Surface Mine, ,China,coal,Operating,44.897826,118.615908,Exact,Inner Mongolia Baiyinhua Mengdong Surface Coal Industry Company,State Power Investment Corporation [SPIC] [43%]; Huolinhe Coal Industry Group [23%]; Industrial and Commercial Bank of China [33%],,Surface,46.57,183.0,Lignite,Thermal,51.3,67.295235,61.47874,51.295273,39.270576,28.769735,22.593021,22.454683,28.485975,38.88434,50.91111,61.326447,67.260414
M0177,Balasu Coal Mine, ,China,coal,Operating,38.265057,109.208519,Exact,Shaanxi Yanchang Petroleum and Balasu Coal Industry Company,Shaanxi Yanchang Petroleum Group 84%; Others 16%,,Underground,300.4,456.0,Bituminous,Thermal,237.5,60.69524,54.87874,44.695274,32.670578,22.169735,15.993021,15.854683,21.885977,32.28434,44.31111,54.726448,60.66041
M0178,Baode Coal Mine, ,China,coal,Operating,38.950871,111.089441,Exact,China Shenhua Energy,China Energy [69%]; HKSCC Nominees Limited [17%]; Others [14%],,Underground,55.9,456.0,Bituminous,Thermal,79.2,61.395237,55.57874,45.395275,33.37058,22.869736,16.693022,16.554684,22.585976,32.98434,45.01111,55.42645,61.360413
M0178,Baode Coal Mine, ,China,coal,Operating,38.950871,111.089441,Exact,China Shenhua Energy,China Energy [69%]; HKSCC Nominees Limited [17%]; Others [14%],,Underground,55.9,456.0,Bituminous,Thermal,126.7,61.395237,55.57874,45.395275,33.37058,22.869736,16.693022,16.554684,22.585976,32.98434,45.01111,55.42645,61.360413
M0179,Baodian Coal Mine, ,China,coal,Operating,35.427152,116.836876,Exact,Yanzhou Coal Mining Company,Shandong Energy [46%]; HKSCC Nominees Limited [39%]; Others [15%],,Underground,37.01,456.0,Bituminous,Thermal,95.0,57.79524,51.97874,41.795273,29.770578,19.269735,13.093021,12.954683,18.985977,29.38434,41.41111,51.826447,57.760414
M0180,Baoqing Chaoyang Surface Coal Mine, ,China,coal,Proposed,46.271618,132.573834,Exact,Guoneng Baoqing Coal Electricity Chemical Company,China Energy [90%]; Baoqing County State Owned Esset Management Company [10%],,Surface,76.8,50.0,Lignite,Thermal,9.8,68.69524,62.87874,52.695274,40.670578,30.169735,23.993021,23.854683,29.885977,40.28434,52.31111,62.726448,68.660416
M0181,Beishan Coal Mine, ,China,coal,Operating,44.538798,90.366812,Exact,Xinjiang Beishan Mining Company,Xinjiang Beishan Huiyuan Investment Company [80%]; Xinjiang Agricultural Sixth Division Aluminum Company [20%],,Surface,7.718,60.0,Bituminous,Thermal,15.6,66.89524,61.07874,50.895275,38.87058,28.369736,22.193022,22.054684,28.085976,38.48434,50.51111,60.92645,66.86041
M0182,Beixinyao Coal Mine, ,China,coal,Operating,39.106574,112.341358,Exact,Datong Group Dongzhouyao Coal Company,Shanxi State-Owned Capital Investment Operation Company [65%]; China Cinda Asset Management Company [30%]; Shanxi Coal Transportation and Sales Group [2%]; Shanxi Shuozhou Mining Company; Datong City State-Owned Assets Supervision and Administration Commission [1%]; Xinzhou Coal Industry Bureau [2%],,Underground,53.3,456.0,Bituminous,Thermal,63.3,61.49524,55.67874,45.495274,33.470577,22.969736,16.79302,16.654682,22.685976,33.08434,45.11111,55.526447,61.46041
M0183,Beskuduk Coal Mine, ,China,coal,Operating,44.174995,91.739878,Approximate,Hami Hexiang Industry and Trade Company,China Coal [46%]; Ningbo Hesheng Group [20%]; Xinjiang Coal Trading Center Company [10%],,Surface,15.02,50.0,Subbituminous,Thermal,1.8,66.59524,60.77874,50.595276,38.57058,28.069735,21.89302,21.754683,27.785976,38.18434,50.21111,60.62645,66.56041
M0184,Boli Coal Mine, ,China,coal,Proposed,37.427284,113.576734,Exact,Yangquan Coal Industry Group Boli Coal Mine Company,Shanxi Huayang Group New Energy Company [70%]; Shanxi Chuangrei New Energy Investment Company [30%],,Underground,107.53,456.0,Anthracite,Thermal,140.5,59.79524,53.97874,43.795273,31.770578,21.269735,15.093021,14.954683,20.985975,31.38434,43.41111,53.826447,59.760414
M0185,Boqizhang Coal Mine, ,China,coal,Operating,39.808962,112.845462,Exact,Shanxi Coal Transportation and Sales Group Boqizhang Coal Industry Company,Jinneng Group [26%]; China Energy [25%]; Zuoyun Kaihao Industrial Company [49%],,Underground,6.37,456.0,Bituminous,,19.0,62.19524,56.37874,46.195274,34.170578,23.669735,17.493021,17.354683,23.385977,33.78434,45.81111,56.226448,62.16041
M0186,Buertai Coal Mine, ,China,coal,Operating,39.495115,109.973302,Exact,China Shenhua Energy Company,China Energy [69%]; HKSCC Nominees Limited [17%]; Others [14%],,Underground,192.6,456.0,Bituminous,Thermal,316.6,61.895237,56.07874,45.895275,33.87058,23.369736,17.193022,17.054684,23.085976,33.48434,45.51111,55.92645,61.860413
M0187,Buliangou Coal Mine, ,China,coal,Operating,40.012229,111.336127,Exact,Inner Mongolia Mengtai Buliangou Coal Industry Company,Inner Mongolia Mengtai Group [49%]; China Huadian [35%]; Others [16%],,Underground,33.21,456.0,Bituminous,Thermal,285.0,62.395237,56.57874,46.395275,34.37058,23.869736,17.693022,17.554684,23.585976,33.98434,46.01111,56.42645,62.360413
M0188,Buzhaoba Surface Mine, ,China,coal,Operating,23.800855,103.180577,Exact,Yunnan Xiaolongtan Mining Administration,Yunnan Xiaolongtan Mining Administration,,Surface,,50.0,Lignite,Thermal,11.6,46.19524,40.37874,30.195274,18.170578,7.669735,1.4930211,1.354683,7.385976,17.78434,29.81111,40.226448,46.16041
M0189,Chagannur No.1 Coal Mine, ,China,coal,Proposed,43.553884,115.167883,Exact,Xilingol Fengfeng Energy Company,Jizhong Energy Group [48%]; China Huarong Asset Management Company [2%]; China Energy Investment Corporation [49%]; Others [1%],,Underground,83.4,456.0,Lignite,Thermal,25.6,65.99524,60.17874,49.995274,37.970577,27.469736,21.293022,21.154682,27.185976,37.58434,49.61111,60.026447,65.96041
M0190,Chahasu Coal Mine, ,China,coal,Mothballed,39.302564,109.965281,Exact,Guodian & Jiantou Inner Mongolia Energy Investment Company,China Energy [50%]; Hebei Construction & Investment Group [50%],,Underground,155.8,456.0,Bituminous,Thermal,158.3,61.69524,55.87874,45.695274,33.670578,23.169735,16.993021,16.854683,22.885977,33.28434,45.31111,55.726448,61.66041
M0191,Chaigou Coal Mine, ,China,coal,Operating,39.881266,112.993203,Exact,Shanxi Huairen Lianshun Xida Chaigou Coal Industry Company,Shanxi Zhongmei Shuntong Coal Industry Company [35%]; Huiyong Holding Group [30%]; Beijing Yunduan Technology Development Company [10%]; Beijing Orchid Industry and Trade Group [10%]; Others [15%],,Underground,20.08,456.0,Bituminous,Thermal,126.7,62.29524,56.47874,46.295273,34.270576,23.769735,17.593021,17.454683,23.485975,33.88434,45.91111,56.326447,62.260414
M0192,Changcheng No. 3 Coal Mine, ,China,coal,Proposed,38.369137,106.57545,Exact,Otog Front Banner Changcheng No.3 Mining Company,Shandong Energy [43%]; State Grid Company [10%]; China Huadian Group [16%]; Others [30%],,Underground,49.87,456.0,Bituminous,Met,79.2,60.79524,54.97874,44.795273,32.770576,22.269735,16.093021,15.954683,21.985975,32.38434,44.41111,54.826447,60.760414
M0193,Changcheng No. 5 Coal Mine, ,China,coal,Operating,38.322181,106.529516,Exact,Otog Front Banner Changcheng No.5 Mining Company,Shandong Energy [43%]; State Grid Corporation of China [16%]; China Huadian [16%]; HKSCC Nominees Limited [6%]; Shandong Development Investment Holding Group [2%]; Others [17%],,Underground,14.66,456.0,Bituminous,Thermal & Met,28.5,60.69524,54.87874,44.695274,32.670578,22.169735,15.993021,15.854683,21.885977,32.28434,44.31111,54.726448,60.66041
M0194,Changcheng No. 6 Coal Mine, ,China,coal,Operating,38.299084,106.53429,Exact,Otog Front Banner Changcheng No.6 Mining Company,Shandong Energy [43%]; State Grid Corporation of China [13%]; Inner Mongolia Shuangxin Energy Chemical Company [28%]; Beijing Huirong Shengjing Equity Investment Fund Management Center [4%]; Ordos Antel Investment Company [3%],,Underground,9.43,456.0,Bituminous,Thermal & Met,23.7,60.69524,54.87874,44.695274,32.670578,22.169735,15.993021,15.854683,21.885977,32.28434,44.31111,54.726448,60.66041
M0195,Changping Coal Mine, ,China,coal,Operating,35.911636,112.844663,Exact,Shanxi Changping Coal Industry Company,Jinneng Group [68%]; Others [32%],,Underground,54.91,456.0,Anthracite,Thermal,140.5,58.29524,52.47874,42.295273,30.270578,19.769735,13.593021,13.454683,19.485975,29.88434,41.91111,52.326447,58.260414
M0196,Chengzhuang Coal Mine, ,China,coal,Operating,35.612799,112.72638,Exact,Jincheng Blue Flame Coal Industry Company,Jinneng Group,,Underground,74.33,456.0,Anthracite,Thermal,224.7,57.99524,52.17874,41.995274,29.97058,19.469736,13.293021,13.154683,19.185976,29.58434,41.61111,52.026447,57.96041
M0197,Da'an Coal Mine, ,China,coal,Proposed,44.997659,115.334804,Exact,Abaga Banner Da'an Mining Company,Inner Mongolia Dinghua Industrial Group,,Underground,19.77,456.0,Bituminous,,19.0,67.39524,61.57874,51.395275,39.37058,28.869736,22.693022,22.554684,28.585976,38.98434,51.01111,61.42645,67.36041
M0198,Dafanpu Coal Mine, ,China,coal,Operating,39.762206,111.213023,Exact,Inner Mongolia Jungar Banner Liliang Coal Industry Company,Kinetic Mines And Energy,,Underground,9.61,456.0,Bituminous,Thermal,102.9,62.19524,56.37874,46.195274,34.170578,23.669735,17.493021,17.354683,23.385977,33.78434,45.81111,56.226448,62.16041
M0199,Dafosi Coal Mine, ,China,coal,Operating,35.062428,107.960069,Exact,Shaanxi Bingchang Dafosi Mining Company,Shaanxi Coal and Chemical Industry Group [56.8%]; Binxian Coal Company [5%]; Shaanxi Investment Group [5%]; Others [33%],,Underground,71.29,456.0,Bituminous,Thermal,126.7,57.49524,51.67874,41.495274,29.470577,18.969736,12.793021,12.654683,18.685976,29.08434,41.11111,51.526447,57.46041
M0200,Dahaize Coal Mine, ,China,coal,Operating,38.422179,109.277001,Exact,China Coal Shaanxi Yulin Energy Chemical Company,China Coal,,Underground,265.63,456.0,Bituminous,Thermal,237.5,60.79524,54.97874,44.795273,32.770576,22.269735,16.093021,15.954683,21.985975,32.38434,44.41111,54.826447,60.760414
M0201,Dalaihushuo Coal Mine, ,China,coal,Proposed,45.382698,119.486564,Exact,Inner Mongolia Jimei Mining Industry Company,Jilin Province Coal Industry Group [41%]; Tibet Hengyisheng Investment Company [39%]; Fude Life Insurance Company [20%],,Underground,37.74,456.0,Bituminous,Thermal,95.0,67.795235,61.97874,51.795273,39.770576,29.269735,23.093021,22.954683,28.985975,39.38434,51.41111,61.826447,67.760414
M0202,Daliuta Coal Mine, ,China,coal,Operating,39.263103,110.234325,Exact,China Shenhua Energy,China Energy [69%]; HKSCC Nominees Limited [17%]; Others [14%],,Underground,126.18,456.0,Bituminous,Thermal,285.0,61.69524,55.87874,45.695274,33.670578,23.169735,16.993021,16.854683,22.885977,33.28434,45.31111,55.726448,61.66041
M0204,Dananhu No. 1 Coal Mine, ,China,coal,Operating,42.382334,93.018391,Exact,State Grid Corporation of China Hami Coal & Energy Company,China Energy,,Underground,75.28,456.0,Bituminous,Thermal,158.3,64.795235,58.97874,48.795273,36.770576,26.269735,20.093021,19.954683,25.985975,36.38434,48.41111,58.826447,64.760414
M0205,Dananhu West No. 5 Coal Mine, ,China,coal,Operating,42.326761,93.352559,Exact,Xukuang Group Hami Energy Company,China Energy [23%]; Xuzhou Coal Mining Group [50%]; Others [27%],,Underground,105.7,456.0,Lignite,Thermal,20.5,64.69524,58.87874,48.695274,36.670578,26.169735,19.993021,19.854683,25.885977,36.28434,48.31111,58.726448,64.660416
M0206,Dananhu No. 2 Surface Mine, ,China,coal,Operating,42.380815,92.96712,Exact,State Grid Corporation of China Hami Coal & Energy Company,China Energy,,Surface,40.52,50.0,Subbituminous,Thermal,11.6,64.795235,58.97874,48.795273,36.770576,26.269735,20.093021,19.954683,25.985975,36.38434,48.41111,58.826447,64.760414
M0207,Dazhong Coal Mine, ,China,coal,Proposed,36.192541,114.092354,Exact,Anyang Dazhong Coal Industry Company,Jinqiu Holding Group [30%]; Anyang Sifang Real Estate Development Company [10%]; Yongmei Group [30%]; Henan Energy and Chemical Group [22%]; State-Owned Assets of the Municipal People's Government Supervision and Management Committee [6%]; Others [3%],,Underground,16.04,456.0,Anthracite,Thermal,33.7,58.595238,52.77874,42.595276,30.570578,20.069735,13.893022,13.7546835,19.785976,30.18434,42.21111,52.62645,58.560413
M0208,Dingji Coal Mine, ,China,coal,Operating,32.871396,116.631428,Exact,Huaihu Coal and Electricity Company,Huaihe Energy [50%]; China Cinda Asset Management [49%]; Others [1%],,Underground,95.67,456.0,Bituminous,Thermal & Met,95.0,55.29524,49.47874,39.295273,27.270578,16.769735,10.593021,10.454683,16.485977,26.88434,38.91111,49.326447,55.260414
M0209,Dongtan Coal Mine, ,China,coal,Operating,35.440703,116.899403,Exact,Yanzhou Coal Mining Company,Shandong Energy [46%]; HKSCC Nominees Limited [40%]; Others [14%],,Underground,59.96,456.0,Bituminous,Thermal,118.7,57.79524,51.97874,41.795273,29.770578,19.269735,13.093021,12.954683,18.985977,29.38434,41.41111,51.826447,57.760414
M0210,Dongzhouyao Coal Mine, ,China,coal,Operating,40.020636,112.863555,Exact,Jinneng Holding Coal Industry Group Dongzhouyao Datong Company,Jinneng Group,,Underground,119.13,456.0,Bituminous,Thermal,158.3,62.395237,56.57874,46.395275,34.37058,23.869736,17.693022,17.554684,23.585976,33.98434,46.01111,56.42645,62.360413
M0211,Eastern Yiminhe No. 1 Coal Mine, ,China,coal,Operating,48.767664,119.940867,Exact,Inner Mongolia Dayan Mining Group,China Energy,,Surface,49.14,50.0,Lignite,Thermal,4.5,71.19524,65.37874,55.195274,43.170578,32.669735,26.493021,26.354683,32.385975,42.78434,54.81111,65.22645,71.160416
M0212,Fangjiapan Coal Mine, ,China,coal,Operating,38.574815,110.040462,Exact,Yulin Yuyang Fangjiapan Coal Industry Company,Wang Jinlong,,Underground & Surface,32.7,60.0,Bituminous,,5.0,60.99524,55.17874,44.995274,32.970577,22.469736,16.29302,16.154682,22.185976,32.58434,44.61111,55.026447,60.96041
M0213,Fengjiata Coal Mine, ,China,coal,Operating,39.196394,111.13213,Exact,Shaanxi Qingshuichuan Energy Company,Shaanxi Investment Group [66%]; Shaanxi Coal and Chemical Industry Group [34%],,Underground,59.5,456.0,Bituminous,,126.7,61.595238,55.77874,45.595276,33.57058,23.069735,16.89302,16.754683,22.785976,33.18434,45.21111,55.62645,61.560413
M0214,Fenyuan Coal Mine, ,China,coal,Operating,38.573106,112.14003,Exact,Huozhou Coal and Electricity Group,Shanxi Coking Coal Group [57%]; China Cinda Asset Management Company [36%]; Others [8%],,Underground,12.7,456.0,Bituminous,,19.0,60.99524,55.17874,44.995274,32.970577,22.469736,16.29302,16.154682,22.185976,32.58434,44.61111,55.026447,60.96041
M0215,Rover Glushinsky-Shcheglovsky-Latyshevsky Coal Mines, ,Russia,coal,Operating,55.708642,86.076336,Exact,Rover LLC,Rover LLC [100%],,Surface,,60.0,Bituminous,,5.3,78.09524,72.27874,62.095276,50.07058,39.569736,33.39302,33.254684,39.285976,49.68434,61.71111,72.12645,78.06041
M0217,Gangou Coal Mine, ,China,coal,Proposed,44.039167,81.171389,Exact,Xinjiang Zhenxing Tianyuan Coal Industry Company,Oriental Fortune (Beijing) Investment Management Company [90%]; Xinjiang Kekedala State-Owned Capital Investment and Operation Company [10%],,Underground,11.26,456.0,Bituminous,Thermal,38.0,66.39524,60.57874,50.395275,38.37058,27.869736,21.693022,21.554684,27.585976,37.98434,50.01111,60.42645,66.36041
M0218,Gaohe Coal Mine, ,China,coal,Operating,36.152253,112.990815,Exact,Shanxi Gaohe Energy Company,Lu'an Chemical Group [55%]; Asian American Continental Coal Company [45%],,Underground,65.35,456.0,Bituminous,Met,118.7,58.595238,52.77874,42.595276,30.570578,20.069735,13.893022,13.7546835,19.785976,30.18434,42.21111,52.62645,58.560413
M0219,Gaojiabao Coal Mine, ,China,coal,Operating,35.268672,107.818112,Exact,Shaanxi Zhengtong Coal Industry,Shandong Energy,,Underground,219,456.0,Bituminous,Thermal,79.2,57.69524,51.87874,41.695274,29.670578,19.169735,12.993021,12.854683,18.885977,29.28434,41.31111,51.726448,57.66041
M0220,Gaojialiang No.1 Coal Mine, ,China,coal,Operating,39.724671,110.065041,Exact,Ordos Haohua Fine Coal Company,Beijing Energy [50%]; Ordos Energy Investment and Development Company [20%]; Shougang Group [1%]; Others [29%],,Underground,96.24,456.0,Bituminous,Thermal,134.6,62.095238,56.27874,46.095276,34.07058,23.569735,17.39302,17.254683,23.285976,33.68434,45.71111,56.12645,62.060413
M0221,Gaoshangou Coal Mine, ,China,coal,Operating,39.874613,110.321401,Approximate,Dalate Wenxing Coal Company,Inner Mongolia Huarui Mining Company [70%]; Ma Tongchun [30%],,Surface,3.26,50.0,Subbituminous,Thermal,1.1,62.29524,56.47874,46.295273,34.270576,23.769735,17.593021,17.454683,23.485975,33.88434,45.91111,56.326447,62.260414
M0222,Gaotouyao Coal Mine, ,China,coal,Operating,40.019808,109.639961,Exact,Inner Mongolia Beilian Power and Energy Development Company,China Huaneng [77%]; Guangdong Hengjian Investment Holding Company [7%]; China Energy [4%]; Others [12%],,Underground,99.45,400.0,Bituminous,Thermal,148.8,62.395237,56.57874,46.395275,34.37058,23.869736,17.693022,17.554684,23.585976,33.98434,46.01111,56.42645,62.360413
M0223,Guangdao Coal Mine, ,China,coal,Operating,36.504525,111.38717,Approximate,Shanxi Hongdong Xishan Guangdao Coal Industry Company,Shanxi Coking Coal Group [27%]; Hongdong Pingan Hengli Building Material Company [49%]; Others [24%],,Underground,16.7,456.0,Bituminous,Met,19.0,58.895237,53.07874,42.895275,30.870579,20.369736,14.193021,14.054683,20.085976,30.48434,42.51111,52.92645,58.860413
M0224,Guanzigou Coal Mine, ,China,coal,Operating,39.549676,111.29482,Exact,Guanzigou Coal Company of Inner Mongolia Manshi Coal Group,Inner Mongolia Manshi Coal Group,,Underground,17.17,456.0,Bituminous,,95.0,61.895237,56.07874,45.895275,33.87058,23.369736,17.193022,17.054684,23.085976,33.48434,45.51111,55.92645,61.860413
M0225,Guizhou Dawan Coal Mine, ,China,coal,Operating,26.779016,104.612282,Exact,Guizhou Shuicheng Mining Company,Guizhou Shuicheng Coal Mine Group [62%]; China Cinda Asset Management [20%],,Underground,5.8,456.0,Bituminous,Met,14.2,49.19524,43.37874,33.195274,21.170578,10.669735,4.493021,4.354683,10.385976,20.78434,32.81111,43.226448,49.16041
M0226,Guojiahe Coal Mine, ,China,coal,Operating,34.85669,107.539367,Exact,Shaanxi Guojiahe Coal Industry Company,Xuzhou Coal Mining Group [60%]; Shaanxi Investment Group [33%]; Baoji State-Owned Assets Management Company [8%],,Underground,94.61,456.0,Bituminous,Thermal,79.2,57.29524,51.47874,41.295273,29.270578,18.769735,12.593021,12.454683,18.485977,28.88434,40.91111,51.326447,57.260414
M0227,Guojiatan Coal Mine, ,China,coal,Proposed,38.611469,109.809687,Exact,Shaanxi Yulin Energy Group Guojiatan Mining Company,Shaanxi Yulin Energy Group,,Underground,14.03,456.0,Subbituminous,Thermal,51.2,60.99524,55.17874,44.995274,32.970577,22.469736,16.29302,16.154682,22.185976,32.58434,44.61111,55.026447,60.96041
M0229,Guqiao Coal Mine, ,China,coal,Operating,32.821408,116.545709,Exact,Huainan Mining Group,Huaihe Energy [83%]; China Cinda Asset Management [8%]; China Energy [3%]; Others [6%],,Underground,92.89,456.0,Bituminous,Thermal,142.5,55.19524,49.37874,39.195274,27.170578,16.669735,10.493021,10.354683,16.385977,26.78434,38.81111,49.226448,55.16041
M0230,Haerwusu Surface Mine, ,China,coal,Operating,39.731044,111.258324,Exact,China Shenhua Energy,China Energy [69%]; HKSCC Nominees Limited [17%]; Others [14%],,Surface,67.17,260.0,Bituminous,Thermal,394.5,62.095238,56.27874,46.095276,34.07058,23.569735,17.39302,17.254683,23.285976,33.68434,45.71111,56.12645,62.060413
M0231,Halagou Coal Mine, ,China,coal,Operating,39.232488,110.076802,Exact,China Shenhua Energy,China Energy [69%]; HKSCC Nominees Limited [17%]; Others [14%],,Underground,72.13,456.0,Bituminous,,253.3,61.595238,55.77874,45.595276,33.57058,23.069735,16.89302,16.754683,22.785976,33.18434,45.21111,55.62645,61.560413
M0232,Hanglaiwan Coal Mine, ,China,coal,Operating,38.530798,109.871886,Exact,Shaanxi Youse Yulin Coal Industry Company,Shaanxi Youser Group [63%]; Shaanxi Yanchang Petroleum Group [38%],,Underground,90.36,456.0,Bituminous,Thermal,158.3,60.895237,55.07874,44.895275,32.87058,22.369736,16.193022,16.054684,22.085976,32.48434,44.51111,54.92645,60.860413
M0233,Hecaogou Coal Mine, ,China,coal,Operating,37.041071,109.666672,Exact,Yan'an Hecaogou Coal Industry Company,Yan’an Energy & Chemical Group [50%]; China Coal [29%]; HKSCC Nominees Limited [15%]; Others [6%],,Underground,100.56,456.0,Bituminous,Thermal,79.2,59.395237,53.57874,43.395275,31.370579,20.869736,14.693021,14.554683,20.585976,30.98434,43.01111,53.42645,59.360413
M0234,Hejiata Coal Mine, ,China,coal,Operating,39.169374,110.355952,Exact,Ministry of Justice of PRC,Ministry of Justice of PRC,,Underground,41.72,456.0,Bituminous,Thermal,28.5,61.595238,55.77874,45.595276,33.57058,23.069735,16.89302,16.754683,22.785976,33.18434,45.21111,55.62645,61.560413
M0235,Hengshi Coal Mine, ,China,coal,Operating,39.723889,106.892778,Exact,Wuhai Hengshi Energy Industry Company,Inner Mongolia Tianyu Innovation Investment Group [95%]; Jiuquan Haohai Coal Chemical Company [5%],,Surface,1.67,273.0,Bituminous,Met,13.8,62.095238,56.27874,46.095276,34.07058,23.569735,17.39302,17.254683,23.285976,33.68434,45.71111,56.12645,62.060413
M0236,Hequ Jiuxian Coal Mine, ,China,coal,Operating,39.140067,111.196655,Exact,Shanxi Coal Import Export Group Hequ Old County Open-Pit Coal Industry Co,Shanxi Coking Coal Group,,Surface,24.95,60.0,Bituminous,Thermal,39.1,61.49524,55.67874,45.495274,33.470577,22.969736,16.79302,16.654682,22.685976,33.08434,45.11111,55.526447,61.46041
M0237,Hesigewula South Surface Coal Mine, ,China,coal,Operating,45.92834677,119.1066869,Exact,Inner Mongolia Xilinhe Coal Chemical Company,China Energy [51%]; Inner Mongolia Jarud Banner Xingta Mining Industry Company [49%],,Surface,17.55,168.0,Lignite,Thermal,36.8,68.295235,62.47874,52.295273,40.270576,29.769735,23.593021,23.454683,29.485975,39.88434,51.91111,62.326447,68.260414
M0238,Hetaoyu Coal Mine, ,China,coal,Operating,35.269947,107.946376,Exact,China Huaneng Gansu Energy Development Company,China Huaneng,,Underground,183.2,1100.0,Bituminous,Thermal,168.6,57.69524,51.87874,41.695274,29.670578,19.169735,12.993021,12.854683,18.885977,29.28434,41.31111,51.726448,57.66041
M0239,Hongdunzi No. 1 Coal Mine, ,China,coal,Operating,38.392215,106.542109,Exact,Ningxia Hongdunzi Coal Industry Company,SPIC Aluminum & Power Investment Company [76%]; Ningxia State-Owned Capital Operation Group Compay [24%],,Underground,33.49,456.0,Bituminous,Met,38.0,60.79524,54.97874,44.795273,32.770576,22.269735,16.093021,15.954683,21.985975,32.38434,44.41111,54.826447,60.760414
M0240,Hongdunzi No. 2 Coal Mine, ,China,coal,Operating,38.413869,106.581473,Exact,Ningxia Hongdunzi Coal Industry Company,SPIC Aluminum & Power Investment Company [76%]; Ningxia State-Owned Capital Operation Group Compay [24%],,Underground,22.7,456.0,Bituminous,Met,38.0,60.79524,54.97874,44.795273,32.770576,22.269735,16.093021,15.954683,21.985975,32.38434,44.41111,54.826447,60.760414
M0241,Hongjingta No. 1 Coal Mine, ,China,coal,Operating,39.458669,110.559449,Exact,Inner Mongolia Yitai Coal Group,Inner Mongolia Yitai Investment,,Underground,28.41,456.0,Bituminous,Thermal,61.7,61.895237,56.07874,45.895275,33.87058,23.369736,17.193022,17.054684,23.085976,33.48434,45.51111,55.92645,61.860413
M0242,Hongliulin Coal Mine, ,China,coal,Operating,38.935223,110.400815,Exact,Shaanxi Coal Group; Shenmu Hongliulin Mining Company,Shaanxi Coal and Chemical Industry Group [32%]; Shenmu County State-Owned Assets Operation Company [24%]; Shaanxi Yulin Energy Group [25%]; China Development Bank [19%],,Underground,151,456.0,Bituminous,Thermal,285.0,61.29524,55.47874,45.295273,33.270576,22.769735,16.593021,16.454683,22.485975,32.88434,44.91111,55.326447,61.260414
M0243,Hongqinghe Coal Mine, ,China,coal,Operating,39.292114,109.684071,Exact,Inner Mongolia Yitai Guanglian Coal Chemical Company,Inner Mongolia Yitai Investment [90%]; Inner Mongolia Guanglian Minzu Economic Development Company [5%]; Inner Mongolia Coal Field Geological Bureau [5%],,Underground,181.44,456.0,Bituminous,Thermal,126.7,61.69524,55.87874,45.695274,33.670578,23.169735,16.993021,16.854683,22.885977,33.28434,45.31111,55.726448,61.66041
M0244,Hongqingliang Coal Mine, ,China,coal,Operating,39.875788,109.367767,Exact,Hangjinqi West Energy Development Company,Shanxi Zhongbo Real Estate Development Company [40%]; Beijing Energy Group [37%]; Shougang Group [1%]; China Coal [1%],,Underground,48.58,456.0,Bituminous,Thermal,95.0,62.29524,56.47874,46.295273,34.270576,23.769735,17.593021,17.454683,23.485975,33.88434,45.91111,56.326447,62.260414
M0245,Hongshan West Coal Mine, ,China,coal,Proposed,44.438297,84.766747,Exact,Xinjiang Zhongfu Mining Industry Company,State-Owned Assets Management Company Hangzhou Jinjiang Group [51%]; Zhejiang Kangrui Investment Company [44%],,Underground,11.08,456.0,Bituminous,Thermal,19.0,66.795235,60.97874,50.795273,38.770576,28.269735,22.093021,21.954683,27.985975,38.38434,50.41111,60.826447,66.760414
M0246,Hongshaquan No. 1 Surface Mine, ,China,coal,Operating,44.502378,90.296864,Exact,China Energy Xinjiang Hongshaquan Energy Company,China Energy,,Surface,79.37,60.0,Bituminous,Thermal,117.2,66.89524,61.07874,50.895275,38.87058,28.369736,22.193022,22.054684,28.085976,38.48434,50.51111,60.92645,66.86041
M0247,Hongshaquan North Coal Mine, ,China,coal,Operating,44.5192,90.3135,Exact,Zhonglian Runshi Xinjiang Coal Industry Company,Yima Coal Industry Group [60%]; Beijing Lirui Investment Company [40%],,Surface,12.88,60.0,Bituminous,Thermal,46.9,66.89524,61.07874,50.895275,38.87058,28.369736,22.193022,22.054684,28.085976,38.48434,50.51111,60.92645,66.86041
M0248,Hongshuliang Coal Mine, ,China,coal,Operating,39.452624,111.290036,Exact,Inner Mongolia Kailuan Hongfeng Coal Company,Kailuan Group [60%]; Inner Mongolia Shengli Resource Group [16%]; Erdos Chunhui Forest Company [12%]; Junggar Juli Cultivation Company [12%],,Underground,29.69,456.0,Bituminous,Thermal,79.2,61.895237,56.07874,45.895275,33.87058,23.369736,17.193022,17.054684,23.085976,33.48434,45.51111,55.92645,61.860413
M0249,Hongsi Coal Mine, ,China,coal,Operating,38.480866,106.613547,Exact,Ningxia Baofeng Group,Ningxia Baofeng Group [36%]; Dongyi International Group [27%]; Others [37%],,Underground,25.38,456.0,Bituminous,Met,47.5,60.895237,55.07874,44.895275,32.87058,22.369736,16.193022,16.054684,22.085976,32.48434,44.51111,54.92645,60.860413
M0250,Huangling Jianzhuang Coal Mine, ,China,coal,Operating,35.390535,108.919611,Exact,Shaanxi Coal Industry Group Huangling Jianzhuang Mining Company,Shaanxi Coal and Chemical Industry Group [25%]; China Huadian [21%]; China Energy [30%]; Others [24%],,Underground,91.52,456.0,Bituminous,,79.2,57.79524,51.97874,41.795273,29.770578,19.269735,13.093021,12.954683,18.985977,29.38434,41.41111,51.826447,57.760414
M0251,Huangling No. 1 Coal Mine, ,China,coal,Operating,35.656136,109.064794,Exact,Huangling Mining Company,Shaanxi Coal and Chemical Industry Group,,Underground,197.5,456.0,Bituminous,Thermal,95.0,58.095238,52.27874,42.095276,30.070578,19.569735,13.393022,13.2546835,19.285976,29.68434,41.71111,52.12645,58.060413
M0252,Huangling No. 2 Coal Mine, ,China,coal,Operating,35.661062,108.91871,Exact,Shaanxi Huangling No.2 Coal Mine Company,Shaanxi Coal and Chemical Industry Group [34%]; Jiangsu Yueda Group [45%]; Industrial and Commercial Bank of China [21%],,Underground,351.94,456.0,Bituminous,,126.7,58.095238,52.27874,42.095276,30.070578,19.569735,13.393022,13.2546835,19.285976,29.68434,41.71111,52.12645,58.060413
M0253,Huangyuchuan Coal Mine, ,China,coal,Operating,39.67209,111.183497,Exact,China Energy Elion Energy Company,China Energy [37%]; Elion Group [49%]; Others [14%],,Underground,42.68,456.0,Bituminous,Thermal,205.8,62.095238,56.27874,46.095276,34.07058,23.569735,17.39302,17.254683,23.285976,33.68434,45.71111,56.12645,62.060413
M0254,Hujiahe Coal Mine, ,China,coal,Operating,35.149375,107.933254,Exact,Shaanxi Binchang Hujiahe Mining Company,Shaanxi Coal and Chemical Industry Group [45%]; China Development Bank [6%]; Others [49%],,Underground,55.24,250.0,Bituminous,Thermal,52.5,57.49524,51.67874,41.495274,29.470577,18.969736,12.793021,12.654683,18.685976,29.08434,41.11111,51.526447,57.46041
M0255,Hulusu Coal Mine, ,China,coal,Operating,39.047968,109.500809,Exact,Zhongtian Hechuang Energy Company,China Coal [38%]; Sinopec [38%]; Shenergy [13%]; Manshi Group [10%]; Others [1%],,Underground,92.76,456.0,Bituminous,Thermal,126.7,61.395237,55.57874,45.395275,33.37058,22.869736,16.693022,16.554684,22.585976,32.98434,45.01111,55.42645,61.360413
M0256,Huojitu Well Of Daliuta Coal Mine, ,China,coal,Operating,39.259312,110.224368,Exact,China Shenhua Energy,China Energy [69%]; HKSCC Nominees Limited [17%]; Others [14%],,Underground,63.78,456.0,Subbituminous,Thermal,76.8,61.69524,55.87874,45.695274,33.670578,23.169735,16.993021,16.854683,22.885977,33.28434,45.31111,55.726448,61.66041
M0257,Huolinhe South Surface Mine, ,China,coal,Operating,45.496018,119.594395,Exact,Inner Mongolia Huolinhe Open-Pit Coal Industry Company,State Power Investment Corporation [SPIC] [39%]; Huolinhe Coal Industry Group [26%]; Others [35%],,Surface,34,276.0,Lignite,Thermal,62.3,67.89524,62.07874,51.895275,39.87058,29.369736,23.193022,23.054684,29.085976,39.48434,51.51111,61.92645,67.86041
M0258,Inner Mongolia Erlintu Coal Mine, ,China,coal,Operating,39.217439,110.006028,Exact,Inner Mongolia Huineng Group Er Lin Tu Coal Company,Inner Mongolia Huineng Coal and Electricity Group [55%]; Shenmu Taide Energy Investment Company [17%]; Inner Mongolia Kaiyuan Shiye Group [10%]; Shendong Tianlong Group [9%]; Erdos Jiuyuan Investment Company [2%]; Others [7%],,Underground,70.33,456.0,Bituminous,Thermal,126.7,61.595238,55.77874,45.595276,33.57058,23.069735,16.89302,16.754683,22.785976,33.18434,45.21111,55.62645,61.560413
M0259,Jiangjun Gebi No. 2 Coal Mine, ,China,coal,Operating,44.648912,90.152365,Exact,Xinjiang Tianchi Energy,Tebian Electric Apparatus [TBEA] [86%]; Xinjiang Joinworld Company [14%],,Surface,77.5,60.0,Bituminous,Thermal,117.2,66.99524,61.17874,50.995274,38.970577,28.469736,22.293022,22.154682,28.185976,38.58434,50.61111,61.026447,66.96041
M0261,Jianyuan Coal Mine, ,China,coal,Proposed,39.342871,106.995121,Exact,Otog Banner Jianyuan Coking Company,Hongxing International Development Company,,Underground,25.42,456.0,Bituminous,,60.2,61.69524,55.87874,45.695274,33.670578,23.169735,16.993021,16.854683,22.885977,33.28434,45.31111,55.726448,61.66041
M0262,Jilangde Coal Mine, ,China,coal,Operating,44.181805,91.738652,Approximate,Hami Hexiang Industry and Trade Company,China Coal [46%]; Ningbo Hesheng Group [20%]; Xinjiang Coal Trading Center Company [10%]; Others [24%],,Surface,14.89,50.0,Subbituminous,Thermal,2.7,66.59524,60.77874,50.595276,38.57058,28.069735,21.89302,21.754683,27.785976,38.18434,50.21111,60.62645,66.56041
M0263,Jingfu Bachigou Coal Mine, ,China,coal,Shelved,39.053177,111.076716,Exact,Fugu State-Owned Assets Management Bureau,Fugu State-Owned Assets Management Bureau,,Underground,8.28,456.0,Anthracite,Thermal,42.1,61.49524,55.67874,45.495274,33.470577,22.969736,16.79302,16.654682,22.685976,33.08434,45.11111,55.526447,61.46041
M0264,Jinggong No. 1 Coal Mine, ,China,coal,Operating,39.446524,112.361964,Exact,China Coal Pingshuo Group,China Coal [57%]; HKSCC Nominees Limited [30%]; Others [13%],,Underground,20.21,456.0,Bituminous,,158.3,61.79524,55.97874,45.795273,33.770576,23.269735,17.093021,16.954683,22.985975,33.38434,45.41111,55.826447,61.760414
M0265,Jinggong No. 3 Coal Mine, ,China,coal,Operating,39.539072,112.326699,Exact,China Coal Pingshuo Group,China Coal [57%]; HKSCC Nominees Limited [30%]; Others [13%],,Underground,19.23,456.0,Bituminous,,158.3,61.895237,56.07874,45.895275,33.87058,23.369736,17.193022,17.054684,23.085976,33.48434,45.51111,55.92645,61.860413
M0266,Jining No. 3 Coal Mine, ,China,coal,Operating,35.274389,116.667245,Exact,Yanzhou Coal Mining Company,Shandong Energy [46%]; HKSCC Nominees Limited [40%]; Others [14%],,Underground,105.1,456.0,Bituminous,Thermal,95.0,57.69524,51.87874,41.695274,29.670578,19.169735,12.993021,12.854683,18.885977,29.28434,41.31111,51.726448,57.66041
M0267,Jinjie Coal Mine, ,China,coal,Operating,38.742365,110.171171,Exact,China Energy Jinjie Energy Company,China Energy [49%]; State Grid Corporation of China [30%]; Others [21%],,Underground,141.77,456.0,Bituminous,Thermal,285.0,61.095238,55.27874,45.095276,33.07058,22.569735,16.39302,16.254683,22.285976,32.68434,44.71111,55.12645,61.060413
M0268,Jinjitan Coal Mine, ,China,coal,Operating,38.506707,109.819371,Exact,Shaanxi Future Energy Chemical Company,Shandong Energy [62%]; Shaanxi Yanchang Petroleum Group [19%]; Jiaxing Dejian Investment Partnership [5%]; Others [14%],,Underground,107.89,456.0,Bituminous,Thermal,269.1,60.895237,55.07874,44.895275,32.87058,22.369736,16.193022,16.054684,22.085976,32.48434,44.51111,54.92645,60.860413
M0269,Jinneng Coal Mine, ,China,coal,Operating,38.401258,112.022623,Exact,Huozhou Coal and Electricity Group,China Huadian [49%]; Shanxi Coking Coal Group [30%]; China Cinda Asset Management [20%]; China Construction Bank [1%],,Underground,20.42,456.0,Bituminous,Met,19.0,60.79524,54.97874,44.795273,32.770576,22.269735,16.093021,15.954683,21.985975,32.38434,44.41111,54.826447,60.760414
M0270,Kabuqi Coal Mine, ,China,coal,Operating,39.623996,106.892109,Exact,Wuhai Wenming Mining Company,Inner Mongolia Tianyu Innovation Investment Group,,Surface,2.26,290.0,Bituminous,Met,14.3,61.99524,56.17874,45.995274,33.970577,23.469736,17.293022,17.154682,23.185976,33.58434,45.61111,56.026447,61.96041
M0271,Kouzi East Coal Mine, ,China,coal,Operating,32.833342,116.162687,Exact,China Coal Xinji Energy,China Coal [30%]; China Energy [7%]; Anhui Xinji Coal and Electricity Group [7%] China COSCO Shipping [56%],,Underground,33.6,456.0,Bituminous,Thermal & Met,79.2,55.19524,49.37874,39.195274,27.170578,16.669735,10.493021,10.354683,16.385977,26.78434,38.81111,49.226448,55.16041
M0272,Liang Bei Coal Mine, ,China,coal,Operating,34.090606,113.464711,Approximate,Henan Xuchang Xinlong Mine Industry Company,Henan Shenhuo Group [24%]; Shangqiu Oriental Investment Company [14%]; Others [62%],,Underground,42.33,800.0,Bituminous,Met,46.6,56.49524,50.67874,40.495274,28.470577,17.969736,11.793021,11.654683,17.685976,28.08434,40.11111,50.526447,56.46041
M0274,Liangshuijing Coal Mine, ,China,coal,Operating,38.794192,110.246348,Exact,Shaaxi Energy Liangshuijing Mining Company,Shaanxi Investment Group [47%]; Shaanxi Yulin Energy Group Huisen Investment and Management [5%]; China Energy [30%]; Shenmu State-Owned Assets Operation Company [17%]; Others [1%],,Underground,68.9,456.0,Bituminous,,126.7,61.19524,55.37874,45.195274,33.170578,22.669735,16.493021,16.354683,22.385977,32.78434,44.81111,55.226448,61.16041
M0275,Libi Coal Mine, ,China,coal,Proposed,35.695959,112.289351,Exact,Guotou Jincheng Energy Investment Company,China Coal [51%]; Shanxi Coking Coal Group [49%],,Underground,43.42,456.0,Anthracite,Thermal,112.4,58.095238,52.27874,42.095276,30.070578,19.569735,13.393022,13.2546835,19.285976,29.68434,41.71111,52.12645,58.060413
M0276,Lijiahao Coal Mine, ,China,coal,Operating,39.738114,110.024669,Exact,China Energy Baotou Energy Company,China Energy [69%]; HKSCC Nominees Limited [17%]; Others [14%],,Underground,67.65,456.0,Bituminous,Thermal,95.0,62.095238,56.27874,46.095276,34.07058,23.569735,17.39302,17.254683,23.285976,33.68434,45.71111,56.12645,62.060413
M0277,Lingbei Coal Mine, ,China,coal,Proposed,36.943231,111.710691,Exact,Shanxi Fenxi Mining Group,Shanxi Coking Coal Group [59%]; China Cinda Asset Management Company [36%]; China Huarong Asset Management Company [2%]; China Construction Bank [2%]; Others [1%],,Underground,29.54,456.0,Bituminous,Met,38.0,59.29524,53.47874,43.295273,31.270578,20.769735,14.593021,14.454683,20.485975,30.88434,42.91111,53.326447,59.260414
M0278,Lingdong Coal Mine, ,China,coal,Operating,49.393174,117.766854,Exact,Zhalainuo'er Coal Industry Company,China Huaneng,,Underground,27.8,456.0,Lignite,Thermal,33.3,71.795235,65.97874,55.795273,43.770576,33.269733,27.093021,26.954683,32.985977,43.38434,55.41111,65.82645,71.760414
M0279,Liushenyu Coal Mine, ,China,coal,Operating,36.592988,112.209382,Exact,Shanxi Tongzhou Group Liushenyu Coal Industry Company,Shanxi Tongzhou Coal and Coke Group,,Underground,15.86,456.0,Bituminous,,19.0,58.99524,53.17874,42.995274,30.97058,20.469736,14.293021,14.154683,20.185976,30.58434,42.61111,53.026447,58.96041
M0280,Liuzhuang Coal Mine, ,China,coal,Operating,32.805365,116.285412,Exact,China Coal Xinji Energy,China Coal [30%]; China Energy [7%]; Anhui Xinji Coal and Electricity Group [7%]; Others [55%],,Underground,82.21,456.0,Bituminous,Thermal,174.2,55.19524,49.37874,39.195274,27.170578,16.669735,10.493021,10.354683,16.385977,26.78434,38.81111,49.226448,55.16041
M0281,Longwan Coal Mine, ,China,coal,Proposed,35.581287,112.222324,Exact,Shanxi Jinmei Qinxiulong Bay Energy Company,Jinneng Group [44%]; Huayang New Material Technology Group [18%]; Yangcheng County Yangtai Group [21%]; Shanxi Yujin Trading Company [9%]; Shanxi Juhuang Century Investment Company [6%]; Others [2%],,Underground,103.58,456.0,Anthracite,Thermal & Met,112.4,57.99524,52.17874,41.995274,29.97058,19.469736,13.293021,13.154683,19.185976,29.58434,41.61111,52.026447,57.96041
