Unit ID,Unit Name,Unit type,Country,Fuel type,Status,Latitude,Longitude,Location accuracy,Owner,Parent,Production (Mtpa),Mine Type,Mine Size (Km2),Mine Depth (m),Coal Type,Coal Grade,GEM Coal Mine Methane Emissions Estimate (MCM/yr),Month_1,Month_2,Month_3,Month_4,Month_5,Month_6,Month_7,Month_8,Month_9,Month_10,Month_11,Month_12
M0001,Shadashak Coal Mine, ,Afghanistan,coal,Operating,35.863255,67.596674,Approximate,North Coal Enterprise (NCE),North Coal Enterprise (NCE) [100%],1.1,Underground,,494.0,Bituminous,Met,24.1,1.9016657,1.8233886,1.1407478,0.54458845,0.39596605,0.6548634,0.6954601,0.46852863,0.21991558,0.34466213,1.0647527,1.3459345
M0002,Airly Coal Mine, ,Australia,coal,Operating,-33.1130709,150.0149367,Exact,Centennial Coal Company Pty Ltd,Banpu PCL [100.0%],1.17,Underground,40,500.0,Bituminous,Thermal,25.8,1.092593,1.0830642,0.9893704,0.7774836,1.0067005,1.3448948,1.3893235,1.5193261,0.7922504,0.5668003,0.4168768,0.40810075
M0004,Angus Place Coal Mine, ,Australia,coal,Cancelled,-33.349157,150.199019,Exact,Centennial Springvale Pty Ltd [50%]; Boulder Mining Pty Ltd [50%],Banpu PCL [100.0%],,Underground,104.6,500.0,Subbituminous,Thermal,21.6,0.955485,0.9381626,0.9266481,0.8013896,1.2166041,1.6342504,1.6115459,1.7604325,1.0278115,0.7309672,0.44311342,0.36091086
M0004,Angus Place Coal Mine, ,Australia,coal,Mothballed,-33.351985,150.099356,Exact,Centennial Springvale Pty Ltd [50%]; Boulder Mining Pty Ltd [50%],Banpu PCL [100.0%],0,Underground,,550.0,Subbituminous,Thermal,0.0,0.977144,0.9409585,0.9500873,0.8112251,1.2127473,1.6614128,1.6262493,1.8258226,1.0766877,0.78488636,0.52284473,0.30388612
M0005,Appin Coal Mine, ,Australia,coal,Operating,-34.211194,150.792736,Exact,Illawarra Coal,South32 Ltd [100.0%],3.9,Underground,,550.0,Bituminous,Met,89.2,1.0824807,1.1111164,1.0373609,0.91385543,1.6944447,2.0136483,2.0027652,1.6538663,0.87319297,0.5542728,0.5773106,0.8261041
M0006,Aquila Coal Mine, ,Australia,coal,Operating,-22.9816055,148.5373229,Exact,Capcoal,Anglo American PLC [70.0%]; Mitsui & Co Ltd [30.0%],3.45,Underground,,175.0,Bituminous,Met,43.0,2.3200042,1.7347869,1.8529701,1.8380977,1.6597735,1.4236977,1.3210763,1.1052984,1.7906629,1.5468067,1.80055,1.9908514
M0007,Ashton Coal Mine, ,Australia,coal,Operating,-32.468942,151.078493,Exact,Ashton Coal Operations,Yancoal Australia Ltd [100.0%],0.9,Underground & Surface,3.15,200.0,Bituminous,Met,12.4,1.3876818,1.3262402,1.01259,0.61784136,0.9224749,1.6069078,1.3727471,1.5772223,0.73946756,0.43884647,0.53266335,0.75787127
M0007,Ashton Coal Mine, ,Australia,coal,Cancelled,-32.468942,151.078493,Exact,Ashton Coal Operations,Yancoal Australia Ltd [100.0%],,Surface,,60.0,Bituminous,Thermal & Met,12.6,1.3876818,1.3262402,1.01259,0.61784136,0.9224749,1.6069078,1.3727471,1.5772223,0.73946756,0.43884647,0.53266335,0.75787127
M0008,Baralaba Coal Mine, ,Australia,coal,Operating,-24.13680401,149.7936125,Exact,Baralaba Coal Co,AMCI Group [100.0%],1.571,Surface,,60.0,Bituminous,Thermal & Met,8.2,1.7590047,1.3909338,1.3492502,1.3895019,1.600958,1.235052,1.2748299,0.6665774,1.1755092,1.4678662,1.6039755,1.5142912
M0008,Baralaba Coal Mine, ,Australia,coal,Proposed,-24.15411438,149.8027197,Exact,Baralaba Coal Co,AMCI Group [100.0%],,Surface,22,60.0,Bituminous,Thermal & Met,10.5,1.7302618,1.3708167,1.3203231,1.3838032,1.5931579,1.2373476,1.2634653,0.6604451,1.1514006,1.4414368,1.5907494,1.4871159
M0009,Belview Coal Mine, ,Australia,coal,Shelved,-23.587132,148.977385,Exact,Stanmore Resources Ltd,Stanmore Resources Ltd [100%],,Underground,,500.0,Bituminous,Met,57.4,2.2479827,1.7567127,1.7958289,1.8053864,1.7234339,1.4487287,1.4110552,1.1126112,1.7232237,1.542169,1.8084669,1.953523
M0010,Bengalla Coal Mine, ,Australia,coal,Operating,-32.268076,150.84,Exact,Bengalla Mining Company,New Hope Group [80.0%]; Taiwan Power Co [20.0%],11.7,Surface,12,270.0,Subbituminous,Thermal,54.4,1.4447596,1.40205,1.1512145,0.6667891,0.7417605,1.3423223,1.176759,1.4439105,0.6851857,0.38739163,0.5896617,0.80188364
M0011,Blackwater Coal Mine, ,Australia,coal,Operating,-23.685585,148.807361,Exact,BHP Billiton Mitsubishi Alliance Pty Ltd,BHP Group Ltd [50.0%]; Mitsubishi Corp [50.0%],14.288,Surface,210,60.0,Bituminous,Thermal & Met,75.0,2.1396384,1.6399553,1.6563929,1.6911908,1.7813607,1.4602123,1.4811819,1.0927764,1.6850888,1.5990314,1.8609622,1.8586235
M0012,Blair Athol Coal Mine, ,Australia,coal,Operating,-22.703221,147.54353,Exact,Orion Mining,TerraCom Ltd [100.0%],2.782,Surface,,50.0,Subbituminous,Thermal,3.3,2.236736,1.597584,1.8265121,2.0715406,2.1058748,1.7296429,1.6919479,1.2724434,1.7978466,1.2433221,1.6160496,1.8683966
M0013,Bloomfield Coal Mine, ,Australia,coal,Operating,-32.7928986,151.5841947,Exact,Bloomfield Collieries Pty Limited,Bloomfield Group [100.0%],0.52,Surface,,60.0,Bituminous,Thermal & Met,2.7,1.5591639,1.5245025,1.1603835,0.5863946,1.291312,1.9256212,1.7406652,1.5367754,0.4779045,0.44075426,0.5853674,1.0928144
M0014,Boggabri Coal Mine, ,Australia,coal,Operating,-30.6116182,150.1550389,Exact,Boggabri Coal Operations,Idemitsu Kosan Co Ltd [100.0%],5.7,Surface,20.56,60.0,Bituminous,Thermal & Met,29.9,0.9344028,1.0573645,0.9165039,0.7402654,0.39776924,0.51589644,0.4912123,0.69363654,0.4889109,0.5307797,0.5530351,0.6418956
M0014,Boggabri Coal Mine, ,Australia,coal,Proposed,-30.6116182,150.1550389,Approximate,Boggabri Coal Operations,Idemitsu Kosan Co Ltd [100.0%],,Surface,,60.0,Bituminous,Thermal & Met,2.6,0.9344028,1.0573645,0.9165039,0.7402654,0.39776924,0.51589644,0.4912123,0.69363654,0.4889109,0.5307797,0.5530351,0.6418956
M0016,Broadmeadow Coal Mine, ,Australia,coal,Operating,-21.8025693,147.98,Exact,BM Alliance Coal Operations Pty Ltd,BHP [50.0%]; Mitsubishi Corp [50.0%],8.395,Underground,,500.0,Bituminous,Met,185.4,2.7922459,1.9987984,2.3241827,2.691042,2.4871786,2.1811001,2.0388796,1.7890004,2.4425738,1.850256,2.064616,2.3110664
M0017,Bulga Coal Mine, ,Australia,coal,Proposed,-32.6795434,151.1000279,Exact,Bulga Coal Management [BCM],Glencore PLC [72.6%]; ENEOS Australia Pty Ltd [13.3%]; Nippon Steel Corp [12.5%],,Surface,0.2,90.0,Bituminous,Thermal,,1.2428479,1.1566143,0.9306669,0.62497365,0.92225057,1.3923932,1.3141263,1.3147798,0.622849,0.41231978,0.47502333,0.75813776
M0017,Bulga Coal Mine, ,Australia,coal,Operating,-32.6795434,151.1000279,Exact,Bulga Coal Management [BCM],Glencore PLC [72.6%]; ENEOS Australia Pty Ltd [13.3%]; Nippon Steel Corp [12.5%],6.35,Underground & Surface,55,60.0,Bituminous,Thermal & Met,33.3,1.2428479,1.1566143,0.9306669,0.62497365,0.92225057,1.3923932,1.3141263,1.3147798,0.622849,0.41231978,0.47502333,0.75813776
M0018,Byerwen Coal Mine, ,Australia,coal,Operating,-21.242828,147.835392,Exact,Byerwen Coal,QCoal [85.0%]; JFE Holdings Inc [15.0%],6.197,Surface,69.97,60.0,Bituminous,Thermal & Met,32.5,2.1912522,1.6547868,1.9490801,2.2457743,2.326757,1.9245001,1.9454942,1.5837932,2.0664308,2.1144896,2.0349886,1.9858147
M0019,Callide Coal Mine, ,Australia,coal,Operating,-24.310921,150.622173,Exact,Batchfire Resources,Batchfire Resources [100%],7.593,Surface,176,50.0,Subbituminous,Thermal,9.1,1.8464925,1.5311284,1.5569015,1.5838524,1.5171766,1.1911311,1.2002755,0.891312,1.3697094,1.4620477,1.554191,1.5406599
M0020,Cameby Downs Coal Mine, ,Australia,coal,Proposed,-26.6540316,150.3354945,Exact,Syntech Resources,Shandong Energy Group Co Ltd [70.0%]; Shandong Guohui Investment Co Ltd [20.0%]; Shandong Caixin Asset Operation Co Ltd [10.0%],,Surface,79.11,50.0,Subbituminous,Thermal,3.6,1.8877254,1.4790165,1.2201575,1.1817473,1.1093776,0.6753197,0.7803938,0.31100926,0.78055406,0.88159597,1.2020206,1.2399647
M0020,Cameby Downs Coal Mine, ,Australia,coal,Operating,-26.6181915,150.3548193,Exact,Syntech Resources,Shandong Energy Group Co Ltd [70.0%]; Shandong Guohui Investment Co Ltd [20.0%]; Shandong Caixin Asset Operation Co Ltd [10.0%],2.86,Surface,,60.0,Bituminous,Thermal,15.0,1.7402186,1.3764476,1.1344495,1.1109524,1.0591556,0.65553904,0.7500562,0.30060205,0.7388039,0.84600544,1.1212333,1.1588967
M0021,CapCoal Mine Complex, ,Australia,coal,Operating,-22.990997,148.580506,Exact,Capcoal,Anglo American PLC [70.0%]; Mitsui & Co Ltd [30.0%],8.403,Underground & Surface,340,60.0,Bituminous,Thermal & Met,44.1,2.352619,1.7835054,1.8963495,1.9005891,1.7301503,1.4875337,1.3855199,1.1405858,1.8121986,1.6013622,1.842714,2.028156
M0022,Carborough Downs Coal Mine, ,Australia,coal,Operating,-21.9502,148.2094,Exact,Fitzroy Australia Resources Pty Ltd,American Metals & Coal International Inc [50.0%]; ITOCHU Corp [50.0%],2.823,Underground,,500.0,Bituminous,Thermal & Met,62.3,2.6540694,1.9018848,2.1550336,2.422157,2.1938517,1.9361496,1.7814165,1.5756801,2.2588634,1.744696,2.007852,2.19013
M0022,Carborough Downs Coal Mine, ,Australia,coal,Proposed,-21.9502,148.2094,Exact,Fitzroy Australia Resources Pty Ltd,American Metals & Coal International Inc [50.0%]; ITOCHU Corp [50.0%],,Underground,,500.0,Bituminous,Met,55.2,2.6540694,1.9018848,2.1550336,2.422157,2.1938517,1.9361496,1.7814165,1.5756801,2.2588634,1.744696,2.007852,2.19013
M0023,Carmichael Coal Project, ,Australia,coal,Operating,-22.073611,146.329722,Approximate,Adani Mining Pty Ltd,Adani Enterprises Ltd [100.0%],2.794,Underground & Surface,447,300.0,Subbituminous,Thermal,14.8,2.5472155,1.5669025,1.8848258,2.2143197,2.0474398,1.8229256,1.6379328,1.5115299,2.1711612,1.5348663,1.9738687,2.3091538
M0023,Carmichael Coal Project, ,Australia,coal,Proposed,-22.073611,146.329722,Approximate,Adani Mining Pty Ltd,Adani Enterprises Ltd [100.0%],,Underground & Surface,447,60.0,Subbituminous,Thermal,43.2,2.5472155,1.5669025,1.8848258,2.2143197,2.0474398,1.8229256,1.6379328,1.5115299,2.1711612,1.5348663,1.9738687,2.3091538
M0023,Carmichael Coal Project, ,Australia,coal,Proposed,-22.073611,146.329722,Approximate,Adani Mining Pty Ltd,Adani Enterprises Ltd [100.0%],,Underground & Surface,447,400.0,Subbituminous,Thermal,115.2,2.5472155,1.5669025,1.8848258,2.2143197,2.0474398,1.8229256,1.6379328,1.5115299,2.1711612,1.5348663,1.9738687,2.3091538
M0024,Caval Ridge Coal Mine, ,Australia,coal,Operating,-22.1056069,148.0475444,Exact,BHP Billiton Mitsubishi Alliance Pty Ltd,BHP Group Ltd [50.0%]; Mitsubishi Corp [50.0%],14.894,Surface,14,60.0,Bituminous,Met,78.2,2.7713788,1.9403454,2.227899,2.5336561,2.3305235,2.0611725,1.9388475,1.6583815,2.3262591,1.6981184,2.011613,2.253158
M0024,Caval Ridge Coal Mine, ,Australia,coal,Proposed,-22.1056069,148.0475444,Exact,BHP Billiton Mitsubishi Alliance Pty Ltd,BHP Group Ltd [50.0%]; Mitsubishi Corp [50.0%],,Surface,14,60.0,Bituminous,Met,78.8,2.7713788,1.9403454,2.227899,2.5336561,2.3305235,2.0611725,1.9388475,1.6583815,2.3262591,1.6981184,2.011613,2.253158
M0025,Central Queensland Coal Mine, ,Australia,coal,Cancelled,-22.679446,149.659662,Exact,Central Queensland Coal Pty Ltd,Mineralogy Pty Ltd [100.0%],,Surface,,60.0,Bituminous,Thermal & Met,10.5,1.9915521,1.6075687,1.6597517,1.6856451,1.7061028,1.419049,1.4337163,1.0128404,1.5989901,2.0595887,1.9250696,1.800818
M0026,Clarence Colliery, ,Australia,coal,Operating,-33.4597,150.2479,Exact,Centennial Coal - Clarence Joint Venture,Banpu PCL [85.0%]; SK Energy [15.0%],1.42,Underground,,500.0,Bituminous,Thermal,31.4,0.8384329,0.7876566,0.831193,0.7807611,1.2587849,1.7192272,1.6488461,1.847157,1.1558075,0.81008434,0.5254496,0.23117264
M0027,Clermont Coal Mine, ,Australia,coal,Operating,-22.7201075,147.6195648,Exact,Clermont Coal Operations Pty Limited,Glencore PLC [37.1%]; Sumitomo Corp [37.1%]; J-Power Australia Pty Ltd [22.2%],10.85,Surface,163.07,60.0,Bituminous,Thermal,57.0,2.265072,1.6103987,1.8376933,2.065951,2.0945864,1.7156945,1.6784986,1.262135,1.8121164,1.2817839,1.644773,1.8861905
M0028,Collinsville Coal Mine, ,Australia,coal,Operating,-20.5567302,147.8148229,Exact,NC Coal Company Pty Ltd,Glencore PLC [100.0%],3.583,Surface,,60.0,Bituminous,Thermal & Met,18.8,2.1796772,1.5334122,1.9006517,2.1004634,2.0274706,1.8442975,1.7675872,1.7526232,2.2659864,2.2715316,2.2527375,2.0011208
M0029,Commodore Coal Mine, ,Australia,coal,Operating,-27.9343501,151.2554422,Exact,Downer EDI,Downer EDI Ltd [100%],3.507,Surface,,60.0,Bituminous,Thermal,18.4,2.4563236,2.1642613,1.6907613,1.3147118,1.1924059,0.6919027,0.8175152,0.51068884,0.9083792,1.0970421,1.490485,1.6153841
M0029,Commodore Coal Mine, ,Australia,coal,Proposed,-27.9343501,151.2554422,Exact,Downer EDI,Downer EDI Ltd [100%],,Surface,,60.0,Bituminous,Thermal,2.1,2.4563236,2.1642613,1.6907613,1.3147118,1.1924059,0.6919027,0.8175152,0.51068884,0.9083792,1.0970421,1.490485,1.6153841
M0030,Cows Coal Mine, ,Australia,coal,Operating,-20.63668673,147.85009,Exact,QCoal,QCoal [100%],,Surface,,60.0,Bituminous,Thermal & Met,5.3,2.2593982,1.6154642,1.957624,2.1698914,2.019312,1.8829739,1.7510642,1.8259324,2.3421721,2.2938123,2.2957582,2.0602942
M0031,Curragh Coal Mine, ,Australia,coal,Proposed,-23.493219,148.842723,Exact,Coronado Global Resources Inc,Coronado Global Resources Inc [100%],,Underground,,500.0,Bituminous,Thermal,,2.5287247,1.9444134,1.989242,1.8899001,1.6917632,1.4986718,1.4291117,1.2584497,1.9839094,1.791733,2.0863895,2.1966143
M0031,Curragh Coal Mine, ,Australia,coal,Operating,-23.493219,148.842723,Exact,Coronado Global Resources Inc,Coronado Global Resources Inc [100%],12.161,Surface,126,60.0,Bituminous,Thermal & Met,63.8,2.5287247,1.9444134,1.989242,1.8899001,1.6917632,1.4986718,1.4291117,1.2584497,1.9839094,1.791733,2.0863895,2.1966143
M0032,Daunia Coal Mine, ,Australia,coal,Operating,-22.0410919,148.2702015,Exact,BHP Billiton Mitsubishi Alliance Pty Ltd,BHP Group Ltd [50.0%]; Mitsubishi Corp [50.0%],3.651,Surface,,60.0,Bituminous,Thermal & Met,19.2,2.5357482,1.8399938,2.0741568,2.3072083,2.0898924,1.8420023,1.6900604,1.4972268,2.163406,1.727176,1.9630454,2.1128945
M0033,Dawson Complex, ,Australia,coal,Operating,-24.6168211,150.0504833,Exact,Dawson Joint Venture,Anglo American PLC [51.0%]; Mitsui & Co Ltd [49.0%],6.087,Surface,,60.0,Bituminous,Thermal & Met,32.0,1.6995434,1.4736799,1.4274726,1.6604993,1.8466971,1.4164158,1.4425739,0.7765719,1.0877922,1.3224465,1.4972938,1.4259634
M0034,Dendrobium Coal Mine, ,Australia,coal,Operating,-34.419776,150.826135,Exact,Illawarra Coal,South32 Ltd [100.0%],2.61,Underground,,350.0,Bituminous,Met,49.2,1.2077824,1.2711697,1.243285,1.1459675,2.2203696,2.7865279,2.6541405,2.1421068,1.1586535,0.6324221,0.6347801,0.98717207
M0034,Dendrobium Extension Project, ,Australia,coal,Cancelled,-34.419776,150.826135,Exact,Illawarra Coal,South32 Ltd [100.0%],,Underground,,350.0,Bituminous,Met,,1.2077824,1.2711697,1.243285,1.1459675,2.2203696,2.7865279,2.6541405,2.1421068,1.1586535,0.6324221,0.6347801,0.98717207
M0035,Drake Coal Mine, ,Australia,coal,Operating,-20.705189,147.812727,Exact,QCoal,QCoal [100%],5.312,Surface,,60.0,Bituminous,Thermal & Met,27.9,2.1108296,1.4826027,1.8553941,2.042831,2.0242848,1.7900976,1.749951,1.6499599,2.1687074,2.219296,2.1853285,1.9377067
M0036,Dysart East Coal Project, ,Australia,coal,Proposed,-22.550335,148.414404,Approximate,Mastermyne Group,Metarock Group Ltd [100%],,Underground,,500.0,Bituminous,Met,42.0,2.4406013,1.7874688,1.9515519,2.0551202,1.9199169,1.6369866,1.5587887,1.2404473,1.9106165,1.6282629,1.889269,2.0484405
M0037,Eagle Downs Coal Project, ,Australia,coal,Cancelled,-22.189318,148.204249,Exact,Aquila; South33,Aquila [100%],,Underground,45,500.0,Bituminous,Met,77.3,2.5456393,1.8164376,2.0383673,2.2696943,2.088097,1.8322184,1.7131541,1.4604907,2.1157472,1.6261444,1.910728,2.0946338
M0037,Eagle Downs Coal Project, ,Australia,coal,Cancelled,-22.189318,148.204249,Exact,Aquila; South32,Aquila [100%],,Underground,45,500.0,Bituminous,Met,99.4,2.5456393,1.8164376,2.0383673,2.2696943,2.088097,1.8322184,1.7131541,1.4604907,2.1157472,1.6261444,1.910728,2.0946338
M0038,Ensham Coal Mine, ,Australia,coal,Operating,-23.454464,148.497455,Exact,Sungela,Thungela Resources Ltd [75.0%]; Audley Energy Ltd [12.5%]; Mayfair Corporations Group Pty Ltd [12.5%],3.91,Underground & Surface,27.37,210.0,Subbituminous,Thermal,16.3,2.3978157,1.8009204,1.842592,1.7697965,1.686581,1.4037867,1.3326565,1.1149917,1.8729221,1.685369,1.9988558,2.0674276
M0038,Ensham Coal Mine, ,Australia,coal,Proposed,-23.454464,148.497455,Exact,Sungela,Thungela Resources Ltd [75.0%]; Audley Energy Ltd [12.5%]; Mayfair Corporations Group Pty Ltd [12.5%],,Underground & Surface,,210.0,Subbituminous,Thermal,,2.3978157,1.8009204,1.842592,1.7697965,1.686581,1.4037867,1.3326565,1.1149917,1.8729221,1.685369,1.9988558,2.0674276
M0039,Ewington Coal Mine, ,Australia,coal,Operating,-33.3624,116.25,Exact,Griffin Coal Mining Company Pty Ltd,Lanco Resources Australia Pty Ltd [100.0%],2,Surface,,60.0,Bituminous,Thermal & Met,10.5,2.5568159,2.2759593,1.578314,0.69204557,0.5900078,1.129639,1.9502394,0.9100884,0.92118514,1.0378534,1.6572055,2.3624988
M0040,Foxleigh Coal Mine, ,Australia,coal,Operating,-22.997778,148.803889,Exact,Middlemount South Limited,QMetco Ltd [100.0%],3.42,Surface,,60.0,Bituminous,Met,18.0,2.4718795,1.9256313,2.0239353,2.0635846,1.8784567,1.6237056,1.5085825,1.226414,1.8868111,1.7362167,1.9530998,2.1450915
M0041,Galilee Coal Mine, ,Australia,coal,Shelved,-23.498536,145.94229,Approximate,Waratah Coal Pty Ltd,Mineralogy Pty Ltd [100.0%],,Underground & Surface,120,60.0,Subbituminous,Thermal,54.0,2.732952,1.8875945,2.0316198,2.3084848,2.1047623,1.8476763,1.7223737,1.4879862,2.2079957,1.3190104,1.9968585,2.3784823
M0042,Glendell Coal Mine, ,Australia,coal,Shelved,-32.45121527,151.0783194,Exact,Mt Owen Pty Limited,Glencore PLC [100.0%],,Surface,6.6,60.0,Bituminous,Thermal,28.9,1.3876818,1.3262402,1.01259,0.61784136,0.9224749,1.6069078,1.3727471,1.5772223,0.73946756,0.43884647,0.53266335,0.75787127
M0042,Glendell Coal Mine, ,Australia,coal,Operating,-32.45121527,151.0783194,Exact,Mt Owen Pty Limited,Glencore PLC [100.0%],2.53,Surface,,60.0,Bituminous,Thermal,13.3,1.3876818,1.3262402,1.01259,0.61784136,0.9224749,1.6069078,1.3727471,1.5772223,0.73946756,0.43884647,0.53266335,0.75787127
M0043,Goonyella-Riverside Coal Mine, ,Australia,coal,Operating,-21.792321,147.962045,Exact,BHP Billiton Mitsubishi Alliance Pty Ltd,BHP Group Ltd [50.0%]; Mitsubishi Corp [50.0%],22.152,Surface,,60.0,Bituminous,Met,116.3,2.7922459,1.9987984,2.3241827,2.691042,2.4871786,2.1811001,2.0388796,1.7890004,2.4425738,1.850256,2.064616,2.3110664
M0044,Gregory Crinum Coal Mines, ,Australia,coal,Operating,-23.1491384,148.3875874,Exact,Sojitz Blue Pty Ltd,Sojitz Corp [100.0%],2.389,Underground & Surface,,85.0,Bituminous,Met,17.6,2.5406866,1.8846406,2.0149233,1.9840877,1.7667544,1.5246401,1.3825476,1.2285553,1.9854952,1.6368232,1.9598906,2.1773462
M0044,Gregory Crinum Coal Mines, ,Australia,coal,Proposed,-23.1491384,148.3875874,Exact,Sojitz Blue Pty Ltd,Sojitz Corp [100.0%],,Underground & Surface,,85.0,Bituminous,Met,,2.5406866,1.8846406,2.0149233,1.9840877,1.7667544,1.5246401,1.3825476,1.2285553,1.9854952,1.6368232,1.9598906,2.1773462
M0045,Grosvenor Coal Mine, ,Australia,coal,Operating,-21.97420531,148.0106197,Exact,Grosvenor,Anglo American PLC [88.0%]; Nippon Steel Corp [5.0%],1.993,Underground,,500.0,Bituminous,Met,44.0,2.81858,1.9818084,2.2839415,2.6100385,2.392767,2.116137,1.9798695,1.7146558,2.3923693,1.7560813,2.0533984,2.2974036
M0046,Hail Creek Coal Mine, ,Australia,coal,Operating,-21.484811,148.37,Exact,Hail Creek Coal Pty Ltd,Glencore PLC [84.7%]; Marubeni Corp [12.0%],10.784,Surface,210,60.0,Bituminous,Thermal & Met,56.6,2.222392,1.6350092,1.8788378,2.0636928,1.783032,1.59634,1.4016001,1.3810586,2.0619085,1.8198504,1.9314281,1.9271165
M0047,Hillalong Coal Mine, ,Australia,coal,Proposed,-21.416653,148.31,Exact,Shandong Energy Group Co Ltd,Shandong Provincial People's Government State-owned Assets Supervision and Administration Commission [70.0%]; Shandong Guohui Investment Co Ltd [20.0%]; Shandong Caixin Asset Operation Co Ltd [10.0%],,Underground & Surface,,160.0,Bituminous,Thermal & Met,49.7,2.212306,1.6438566,1.9149444,2.1785667,2.005666,1.7577826,1.6181412,1.5094762,2.090477,1.8136894,1.8826097,1.9079224
M0048,Hume Coal Mine, ,Australia,coal,Cancelled,-34.54081,150.284465,Exact,POSCO Holdings Inc,POSCO Holdings Inc [100%],,Underground,5,180.0,Bituminous,Thermal & Met,38.4,0.7037995,0.58103836,0.5933417,0.8777924,1.512752,1.8687513,1.7293066,1.8634865,1.1515191,0.78048503,0.57905406,0.1675008
M0049,Hunter Valley North Coal Mine, ,Australia,coal,Operating,-32.4657844,150.9734981,Exact,Hunter Valley Operations,Yancoal Australia Ltd [51.0%]; Glencore PLC [49.0%],4.38,Surface,,60.0,Bituminous,Thermal & Met,23.0,1.3952136,1.3405266,1.0561424,0.64529556,0.87373036,1.5497575,1.3253723,1.5486877,0.74726844,0.43955767,0.5420232,0.76265186
M0050,Hunter Valley South Coal Mine, ,Australia,coal,Operating,-32.5245107,150.9819012,Exact,Hunter Valley Operations,Yancoal Australia Ltd [51.0%]; Glencore PLC [49.0%],7.55,Surface,,60.0,Bituminous,Thermal & Met,39.6,1.3952136,1.3405266,1.0561424,0.64529556,0.87373036,1.5497575,1.3253723,1.5486877,0.74726844,0.43955767,0.5420232,0.76265186
M0051,Hutton Coal Mine, ,Australia,coal,Cancelled,-25.951645,148.961201,Exact,Valiant Resources Ltd,Valiant Resources Ltd [100%],,Underground,1469,500.0,Bituminous,Met,529.9,1.7588688,1.218925,1.1103456,1.1466904,1.1291151,0.72445416,0.7942399,0.3354108,0.8402123,0.7858403,1.2084379,1.2253716
M0051,Hutton Coal Mine, ,Australia,coal,Cancelled,-25.951645,148.961201,Exact,Valiant Resources Ltd,Valiant Resources Ltd [100%],,Underground,1469,500.0,Bituminous,Met,529.9,1.7588688,1.218925,1.1103456,1.1466904,1.1291151,0.72445416,0.7942399,0.3354108,0.8402123,0.7858403,1.2084379,1.2253716
M0052,Ironbark No. 1 Coal Mine, ,Australia,coal,Operating,-21.97648262,148.2346531,Approximate,Fitzroy Australia Resources Pty Ltd,American Metals & Coal International Inc [50.0%]; ITOCHU Corp [50.0%],0.18,Underground,100,400.0,Bituminous,Thermal & Met,3.6,2.6540694,1.9018848,2.1550336,2.422157,2.1938517,1.9361496,1.7814165,1.5756801,2.2588634,1.744696,2.007852,2.19013
M0053,Isaac Downs Coal Mine, ,Australia,coal,Operating,-21.97936646,148.1290409,Exact,Stanmore IP South Pty Ltd,Stanmore Resources Ltd [100.0%],4.21,Surface,,60.0,Bituminous,Thermal & Met,22.1,2.7486959,1.949666,2.2250295,2.5233493,2.295155,2.0279403,1.8780456,1.6484889,2.3354874,1.7545485,2.0383108,2.2520256
M0054,Isaac Plains East Coal Mine, ,Australia,coal,Mothballed,-21.9718375,148.1132931,Exact,Stanmore Resources Ltd,Stanmore Resources Ltd [100%],2.38,Surface,,60.0,Bituminous,Met,12.5,2.7486959,1.949666,2.2250295,2.5233493,2.295155,2.0279403,1.8780456,1.6484889,2.3354874,1.7545485,2.0383108,2.2520256
M0055,Jax Coal Mine, ,Australia,coal,Operating,-20.713736,147.860166,Exact,Thiess,Thiess Group Holdings Pty Ltd [100.0%],2.151,Surface,,60.0,Bituminous,Thermal & Met,11.3,2.2138085,1.5815138,1.9293414,2.1294386,2.0196273,1.8369637,1.7388126,1.7422608,2.2685761,2.2719424,2.2613688,2.0251198
M0056,Jellinbah Coal Mine, ,Australia,coal,Operating,-23.406874,148.950644,Exact,Golding Contractors,NRW Holdings Ltd [100.0%],4.963,Surface,,30.0,Bituminous,Met,14.1,2.555943,2.0220468,2.0970576,2.0843613,1.9082605,1.683922,1.5623941,1.344771,2.0122519,1.7756071,2.0541832,2.2430274
M0057,Karin Coal Mine, ,Australia,coal,Proposed,-23.058371,147.581142,Exact,Vitrinite,Vitrinite [100%],,Underground & Surface,,115.0,Bituminous,Met,16.0,2.2053988,1.5729265,1.7596323,1.9326469,1.9630831,1.5675778,1.5029157,1.0758077,1.6914856,1.1393248,1.5773987,1.8229119
M0058,Kestrel Coal Mine, ,Australia,coal,Operating,-23.236333,148.3583273,Exact,Kestrel Coal Resources,EMR Capital Pty Ltd [52.0%]; PT Adaro Energy Indonesia Tbk [48.0%],7.392,Underground,,250.0,Bituminous,Thermal & Met,115.9,2.5380995,1.892921,2.0108814,1.9642549,1.7492219,1.5086005,1.3645768,1.2223717,1.9808533,1.6290852,1.9648268,2.1775272
M0059,Kogan Creek Coal Mine, ,Australia,coal,Operating,-26.9384276,150.7743816,Exact,Golding Contractors,NRW Holdings Ltd [100.0%],2.589,Surface,,50.0,Subbituminous,Thermal,3.1,2.5072997,2.0692718,1.6226625,1.4939594,1.3891337,0.8333631,0.9817829,0.4323729,0.9804855,1.214878,1.5636507,1.6993171
M0060,Lake Vermont Coal Mine, ,Australia,coal,Proposed,-22.3894938,148.3769527,Approximate,Jellinbah Group Pty Ltd,Anglo American PLC [33.0%],,Underground & Surface,82.35,60.0,Bituminous,Thermal & Met,,2.3603199,1.7322719,1.9111031,2.0510125,1.9086785,1.6360466,1.542433,1.2522851,1.8862025,1.5650159,1.8104415,1.9594073
M0060,Lake Vermont Coal Mine, ,Australia,coal,Operating,-22.4611726,148.4056045,Exact,Jellinbah Group Pty Ltd,Anglo American PLC [33.0%],11.156,Surface,8.2,30.0,Bituminous,Thermal & Met,31.8,2.4021764,1.7611705,1.9335591,2.0567145,1.917638,1.6405338,1.5549947,1.2492329,1.9011238,1.5978919,1.8514628,2.0054715
M0062,Loy Yang Coal Mine, ,Australia,coal,Operating,-38.2347,146.564,Exact,AGL Loy Yang Pty Ltd,AGL Energy Ltd [100.0%],,Surface,12,200.0,Subbituminous,Thermal,105.0,0.6030803,0.4217792,0.6267384,0.9870632,1.3065591,1.2704979,1.2871412,1.4273121,1.0690968,0.74190754,0.73978084,0.41371047
M0063,Mandalong Coal Mine, ,Australia,coal,Proposed,-33.119111,151.461844,Exact,Centennial Mandalong Pty Ltd,Banpu PCL [100.0%],,Underground,,330.0,Subbituminous,Thermal,2.8,1.9563205,1.9915326,1.6363001,0.7406647,1.5417181,2.2306945,2.1698313,1.6620926,0.560723,0.628748,0.8065024,1.4602169
M0063,Mandalong Coal Mine, ,Australia,coal,Operating,-33.119111,151.461844,Exact,Centennial Mandalong Pty Ltd,Banpu PCL [100.0%],2.68,Underground,,300.0,Bituminous,Thermal,46.8,1.9563205,1.9915326,1.6363001,0.7406647,1.5417181,2.2306945,2.1698313,1.6620926,0.560723,0.628748,0.8065024,1.4602169
M0064,Mangoola Coal Mine, ,Australia,coal,Operating,-32.294922,150.706712,Exact,Mangoola Coal Operations Pty Ltd,Glencore PLC [100.0%],7.69,Surface,,50.0,Subbituminous,Thermal,9.2,1.451557,1.4168187,1.1853936,0.69006133,0.71052176,1.2412341,1.1084588,1.3711622,0.6447406,0.38747904,0.6034465,0.80498147
M0064,Mangoola Coal Mine, ,Australia,coal,Proposed,-32.294922,150.706712,Exact,Mangoola Coal Operations Pty Ltd,Glencore PLC [100.0%],,Surface,,50.0,Subbituminous,Thermal,6.0,1.451557,1.4168187,1.1853936,0.69006133,0.71052176,1.2412341,1.1084588,1.3711622,0.6447406,0.38747904,0.6034465,0.80498147
M0065,Maules Creek Coal Mine, ,Australia,coal,Operating,-30.562606,150.11498,Exact,Maules Creek Joint Venture,Whitehaven Coal Ltd [75.0%]; ITOCHU Corp [15.0%]; J-POWER Co Ltd [10.0%],9.372,Surface,16,300.0,Bituminous,Thermal & Met,153.2,0.9466442,1.1066455,0.94560796,0.7662444,0.49316537,0.45304075,0.4873738,0.5926933,0.37244397,0.44233942,0.4968058,0.66209275
M0066,Maxwell Coal Mine, ,Australia,coal,Operating,-32.433479,150.824735,Exact,Malabar Resources,Malabar Resources [100%],,Underground,,500.0,Bituminous,Met,176.6,1.4735653,1.4251485,1.1760787,0.69773567,0.7642785,1.3427538,1.1753953,1.423299,0.6844144,0.43836182,0.60979694,0.80750346
M0067,Meandu Coal Mine, ,Australia,coal,Operating,-26.813543,151.911523,Exact,BUMA Australia,PT Bukit Makmur Mandiri Utama [100.0%],6.841,Surface,,50.0,Subbituminous,Thermal,8.2,1.5728583,1.4808108,1.0930015,1.0506403,1.0989006,0.80161804,0.887702,0.54253525,0.5979915,0.6843914,0.8398697,1.103354
M0067,Meandu Coal Mine, ,Australia,coal,Proposed,-26.813543,151.911523,Exact,TEC Coal Pty Ltd,PT Bukit Makmur Mandiri Utama [100.0%],,Surface,,50.0,Subbituminous,Thermal,6.4,1.5728583,1.4808108,1.0930015,1.0506403,1.0989006,0.80161804,0.887702,0.54253525,0.5979915,0.6843914,0.8398697,1.103354
M0068,Meteor Downs South Coal Mine (MDS), ,Australia,coal,Operating,-24.433867,148.385912,Approximate,Sojitz Blue Pty Ltd,Sojitz Corp [100.0%],1.389,Surface,,60.0,Bituminous,Thermal,7.3,1.3478659,1.1403921,1.1290536,1.4647472,1.6988449,1.226014,1.2377481,0.63940394,0.8757424,0.7940936,1.0900346,1.1549366
M0069,Middlemount Coal Mine, ,Australia,coal,Operating,-22.848131,148.631626,Exact,Middlemount Coal Limited,Peabody Energy Corp [50.0%]; Yancoal Australia Ltd [50.0%],4.27,Surface,28,50.0,Subbituminous,Thermal & Met,5.1,2.2887578,1.72819,1.8490108,1.8994517,1.7715311,1.5183166,1.4500384,1.1359242,1.7727894,1.6098547,1.824792,1.9649863
M0071,Minyango Coking Coal Project, ,Australia,coal,Cancelled,-23.497583,148.807134,Approximate,QCoal,QCoal [100%],,Underground,,500.0,Bituminous,Thermal & Met,132.5,2.5287247,1.9444134,1.989242,1.8899001,1.6917632,1.4986718,1.4291117,1.2584497,1.9839094,1.791733,2.0863895,2.1966143
M0072,Moolarben Coal Mine, ,Australia,coal,Operating,-32.2828165,149.7591596,Exact,Moolarben Coal Operations,Yancoal Australia Ltd [95.0%]; Kores Australia Moolarben Coal Pty Ltd [5.0%],16.9,Underground & Surface,110,150.0,Subbituminous,Thermal,54.1,1.6353003,1.5756278,1.3716952,0.8371185,0.7278352,1.0080754,1.0653839,1.2273142,0.46154284,0.51319206,0.7144603,0.74331474
M0072,Moolarben Coal Mine, ,Australia,coal,Proposed,-32.2828165,149.7591596,Exact,Moolarben Coal Operations,Yancoal Australia Ltd [95.0%]; Kores Australia Moolarben Coal Pty Ltd [5.0%],,Surface,8.26,125.0,Subbituminous,Thermal,24.5,1.6353003,1.5756278,1.3716952,0.8371185,0.7278352,1.0080754,1.0653839,1.2273142,0.46154284,0.51319206,0.7144603,0.74331474
M0073,Moorlands Coal Mine, ,Australia,coal,Shelved,-22.816656,147.379922,Approximate,Cuesta Coal,Cuesta Coal [100%],,Surface,1000,50.0,Subbituminous,Thermal,2.3,2.2261405,1.5982361,1.8316506,2.0716045,2.0844111,1.7136416,1.6487548,1.2545124,1.7855788,1.1738073,1.5856198,1.8666258
M0074,Moranbah North Coal Mine, ,Australia,coal,Operating,-21.871331,147.956742,Exact,Moranbah North,Anglo American PLC [88.0%]; Nippon Steel Corp [5.0%]; Mitsui & Co Ltd [4.7%],4.124,Underground,67.61,200.0,Bituminous,Met,56.7,2.8365188,2.0097902,2.3244042,2.6733751,2.4554672,2.1637578,2.0186262,1.7623044,2.4383368,1.8085887,2.0745583,2.3250396
M0075,Mount Arthur Coal Mine, ,Australia,coal,Operating,-32.337022,150.856144,Exact,Hunter Valley Energy Coal,BHP Group Ltd [100.0%],19.82,Surface,64,60.0,Bituminous,Thermal,104.1,1.400823,1.3620031,1.0928484,0.6350966,0.76310515,1.4226174,1.2295519,1.5017816,0.7165012,0.39926296,0.55280554,0.76574314
M0076,Mount Pleasant Coal Mine, ,Australia,coal,Proposed,-32.25591661,150.8499847,Exact,Integrated Energy Services Corp,Integrated Energy Services Corp [100%],,Surface,28,60.0,Bituminous,Thermal,34.1,1.4447596,1.40205,1.1512145,0.6667891,0.7417605,1.3423223,1.176759,1.4439105,0.6851857,0.38739163,0.5896617,0.80188364
M0076,Mount Pleasant Coal Mine, ,Australia,coal,Operating,-32.25591661,150.8499847,Exact,Mach Energy,Integrated Energy Services Corp [100%],9.99,Surface,28,60.0,Bituminous,Thermal,52.4,1.4447596,1.40205,1.1512145,0.6667891,0.7417605,1.3423223,1.176759,1.4439105,0.6851857,0.38739163,0.5896617,0.80188364
M0077,Mt Owen Coal Mine, ,Australia,coal,Operating,-32.4066392,151.085603,Exact,Mt Owen Pty Ltd,Glencore PLC [100.0%],7.4,Surface,,270.0,Bituminous,Thermal & Met,114.3,1.3047086,1.2657882,0.9697496,0.5964997,0.86833704,1.5691372,1.3300219,1.5806093,0.7605712,0.4598516,0.5007334,0.6774446
M0078,Mt Thorley Warkworth Coal Mine, ,Australia,coal,Proposed,-32.60700995,151.0901636,Approximate,Coal & Allied,Yancoal Australia Ltd [100.0%],,Underground,,500.0,Bituminous,Thermal & Met,132.5,1.3269231,1.2521847,0.9775589,0.61667514,0.9066265,1.4958938,1.3265704,1.443077,0.6753503,0.42108443,0.5061058,0.7645788
M0078,Mt Thorley Warkworth Coal Mine, ,Australia,coal,Operating,-32.60700995,151.0901636,Exact,Coal & Allied,Yancoal Australia Ltd [100.0%],8.1,Surface,,60.0,Bituminous,Thermal & Met,42.5,1.3269231,1.2521847,0.9775589,0.61667514,0.9066265,1.4958938,1.3265704,1.443077,0.6753503,0.42108443,0.5061058,0.7645788
M0079,Muswellbrook No. 2 Coal Mine, ,Australia,coal,Shelved,-32.244988,150.941392,Exact,Idemitsu Australia Resources Pty Ltd,Idemitsu Kosan Co Ltd [100.0%],,Surface,,60.0,Bituminous,,71.4,1.2843735,1.2719687,1.0297257,0.5958575,0.6420841,1.2954189,1.1217648,1.4191754,0.6954586,0.42912608,0.501276,0.68989676
M0080,Myuna Coal Mine, ,Australia,coal,Operating,-33.060111,151.568738,Exact,Centennial Myuna Pty Ltd,Banpu PCL [100.0%],1.05,Underground,,120.0,Subbituminous,Thermal,2.9,--,--,--,--,--,--,--,--,--,--,--,--
M0081,Narrabri Coal Mine, ,Australia,coal,Proposed,-30.51820371,149.8976794,Exact,Narrabri Coal Joint Venture,Whitehaven Coal Ltd [77.5%]; J-POWER Co Ltd [7.5%]; Upper Horn Investments Ltd [7.5%]; Daewoo Co Ltd [5.0%],,Underground,10,380.0,Bituminous,Thermal,,0.93969697,1.0435008,0.9502658,0.76632136,0.5968065,0.3971498,0.51350206,0.47684002,0.3901199,0.4449787,0.56594825,0.66145205
M0081,Narrabri Coal Mine, ,Australia,coal,Operating,-30.51820371,149.8976794,Exact,Narrabri Coal Joint Venture,Whitehaven Coal Ltd [77.5%]; J-POWER Co Ltd [7.5%]; Upper Horn Investments Ltd [7.5%]; Daewoo Co Ltd [5.0%],4.795,Underground,10,200.0,Bituminous,Thermal,66.0,0.93969697,1.0435008,0.9502658,0.76632136,0.5968065,0.3971498,0.51350206,0.47684002,0.3901199,0.4449787,0.56594825,0.66145205
M0082,New Acland Coal Mine, ,Australia,coal,Proposed,-27.278281,151.710176,Exact,New Acland Coal Pty Limited,New Hope Corp Ltd [100.0%],,Surface,,60.0,Bituminous,Thermal,14.2,2.5901377,2.3937283,1.7654793,1.4555876,1.2033453,0.6675462,0.89739317,0.61396813,1.0332698,1.1704987,1.4636617,1.7422707
M0082,New Acland Coal Mine, ,Australia,coal,Operating,-27.278281,151.710176,Exact,New Acland Coal Pty Limited,New Hope Corp Ltd [100.0%],0.98,Surface,,50.0,Subbituminous,Thermal,1.2,2.5901377,2.3937283,1.7654793,1.4555876,1.2033453,0.6675462,0.89739317,0.61396813,1.0332698,1.1704987,1.4636617,1.7422707
M0083,Newlands Coal Mine, ,Australia,coal,Operating,-21.201424,147.887969,Exact,Newlands Coal Pty Ltd,Glencore PLC [100.0%],7.802,Surface,1578.65,60.0,Bituminous,Thermal & Met,41.0,2.1459632,1.6323457,1.921707,2.2509317,2.3281121,1.9269571,1.9471961,1.5962487,2.040075,2.0266883,1.9593071,1.9199771
M0084,Newstan Coal Mine, ,Australia,coal,Proposed,-32.978628,151.574319,Exact,Centennial Newstan Pty Ltd,Banpu PCL [100.0%],,Underground,,500.0,Bituminous,Thermal & Met,35.3,2.391332,2.455904,2.0313787,0.9010724,1.8107389,2.6771302,2.5542107,1.925428,0.6033795,0.8459661,1.0592623,1.8399863
M0085,Oaky Creek Coal Mine, ,Australia,coal,Operating,-23.072256,148.483994,Exact,Glencore PLC,Glencore PLC [100%],5.769,Underground,,350.0,Bituminous,Met,108.9,2.4748747,1.855048,1.9778984,1.9384525,1.7202424,1.4884033,1.3571733,1.190807,1.9282476,1.629061,1.92342,2.130218
M0086,Olive Downs Coal Mine, ,Australia,coal,Operating,-22.2204628,148.4033203,Approximate,Pembroke Resources,Pembroke Resources [100%],,Surface,,60.0,Bituminous,Met,78.8,2.356054,1.7273806,1.9187791,2.087104,1.918013,1.6703537,1.5543444,1.3178447,1.9504741,1.6087017,1.8392735,1.9666917
M0087,Peak Downs Coal Mine, ,Australia,coal,Operating,-22.2548999,148.1796569,Exact,BHP Billiton Mitsubishi Alliance Pty Ltd,BHP Group Ltd [50.0%]; Mitsubishi Corp [50.0%],18.544,Surface,,60.0,Bituminous,Met,97.4,2.4949112,1.780424,1.9893144,2.203796,2.0503514,1.7864547,1.6858606,1.4044225,2.0447395,1.5693759,1.859457,2.049936
M0087,Peak Downs Coal Mine, ,Australia,coal,Proposed,-22.2548999,148.1796569,Exact,BHP Billiton Mitsubishi Alliance Pty Ltd,BHP Group Ltd [50.0%]; Mitsubishi Corp [50.0%],,Surface,,60.0,Bituminous,Met,47.3,2.4949112,1.780424,1.9893144,2.203796,2.0503514,1.7864547,1.6858606,1.4044225,2.0447395,1.5693759,1.859457,2.049936
M0088,Poitrel Coal Mine, ,Australia,coal,Operating,-22.06650421,148.2551254,Exact,Stanmore SMC Pty Ltd,Stanmore Resources Ltd [100.0%],5.422,Surface,,60.0,Bituminous,Met,28.5,2.4883451,1.7984128,2.0167992,2.2314174,2.0313308,1.7897445,1.6553366,1.4416292,2.097055,1.6697264,1.9214075,2.0683935
M0089,Premier Coal Mine, ,Australia,coal,Operating,-33.391728,116.286509,Exact,Yancoal Australia Ltd,Yancoal Australia Ltd [100%],2.8,Surface,130,50.0,Subbituminous,Thermal & Met,3.4,2.6157653,2.29355,1.5773675,0.6987456,0.61498255,1.2339785,2.0565848,0.9932763,0.9801753,1.0680864,1.6909094,2.3943844
M0090,Range Coal Project, ,Australia,coal,Cancelled,-26.230392,150.272257,Exact,Stanmore Resources Ltd,Stanmore Resources Ltd [100%],,Surface,52.26,60.0,Bituminous,Thermal,26.3,1.7646523,1.416304,1.1954117,1.2400182,1.1964033,0.8136963,0.81572014,0.3721131,0.8329982,0.927737,1.1828153,1.213885
M0091,Ravensworth Coal Mine, ,Australia,coal,Operating,-32.4426478,151.0063967,Exact,Ravensworth Operations Pty Limited,Glencore PLC [100.0%],12.8,Surface,,60.0,Bituminous,Thermal,67.2,1.4192181,1.3714677,1.0731614,0.6378676,0.8486584,1.552424,1.3201814,1.5773135,0.75016046,0.4291004,0.5522761,0.764663
M0092,Red Hill Coal Project, ,Australia,coal,Shelved,-21.764098,148.005592,Exact,BHP Billiton Mitsubishi Alliance Pty Ltd,BHP Group Ltd [50.0%]; Mitsubishi Corp [50.0%],,Underground,,500.0,Bituminous,Met,309.1,2.7922459,1.9987984,2.3241827,2.691042,2.4871786,2.1811001,2.0388796,1.7890004,2.4425738,1.850256,2.064616,2.3110664
M0093,Rix Creek Coal Mine, ,Australia,coal,Operating,-32.52393559,151.1208768,Exact,Bloomfield Collieries Pty Ltd,Bloomfield Group [100.0%],5.15,Underground & Surface,,60.0,Bituminous,Thermal & Met,27.0,1.3876818,1.3262402,1.01259,0.61784136,0.9224749,1.6069078,1.3727471,1.5772223,0.73946756,0.43884647,0.53266335,0.75787127
M0093,Rix Creek Coal Mine, ,Australia,coal,Proposed,-32.52393559,151.1208768,Exact,Bloomfield Collieries Pty Ltd,Bloomfield Group [100.0%],,Underground & Surface,,60.0,Bituminous,Thermal & Met,,1.3876818,1.3262402,1.01259,0.61784136,0.9224749,1.6069078,1.3727471,1.5772223,0.73946756,0.43884647,0.53266335,0.75787127
M0094,Rolleston Coal Mine, ,Australia,coal,Operating,-24.456609,148.404902,Exact,Rolleston Coal Holdings Pty Ltd,Glencore PLC,13.02,Surface,363,60.0,Bituminous,Thermal,68.4,1.2178547,1.021396,1.0057313,1.3315774,1.576879,1.1154897,1.1731535,0.5771191,0.7462735,0.68304664,0.98732156,1.0308158
M0094,Rolleston Coal Mine, ,Australia,coal,Shelved,-24.456609,148.404902,Exact,Rolleston Coal Holdings Pty Ltd,Glencore PLC,,Surface,5.6,60.0,Bituminous,Thermal,26.3,1.2178547,1.021396,1.0057313,1.3315774,1.576879,1.1154897,1.1731535,0.5771191,0.7462735,0.68304664,0.98732156,1.0308158
M0095,Russell Vale Colliery, ,Australia,coal,Mothballed,-34.35566,150.89169,Exact,Wollongong Resources Pty Ltd,Jindal Group [100.0%],,Underground,6.4,500.0,Bituminous,Met,16.3,1.5146195,1.6222214,1.5797651,1.2651278,2.565283,3.2512171,3.1164708,2.3748646,1.2520988,0.666991,0.7752965,1.3181323
M0096,Saraji Coal Mine, ,Australia,coal,Operating,-22.371371,148.299848,Exact,BHP Billiton Mitsubishi Alliance Pty Ltd,BHP Group Ltd [50.0%]; Mitsubishi Corp [50.0%],13.995,Surface,120,60.0,Bituminous,Thermal & Met,73.5,2.4334908,1.7607989,1.9507482,2.1199586,1.9752432,1.7036954,1.6094657,1.3168507,1.9571719,1.5656329,1.8376335,2.0112567
M0097,Saraji East Coal Mine, ,Australia,coal,Proposed,-22.371371,148.299848,Exact,BHP Billiton Mitsubishi Alliance Pty Ltd,BHP Group Ltd [50.0%]; Mitsubishi Corp [50.0%],,Underground,,35.0,Bituminous,Met,18.8,2.4334908,1.7607989,1.9507482,2.1199586,1.9752432,1.7036954,1.6094657,1.3168507,1.9571719,1.5656329,1.8376335,2.0112567
M0098,Sonoma Coal Mine, ,Australia,coal,Operating,-20.62,147.86,Exact,QCoal,QCoal [100%],0.83,Surface,,60.0,Bituminous,Thermal & Met,4.4,2.2593982,1.6154642,1.957624,2.1698914,2.019312,1.8829739,1.7510642,1.8259324,2.3421721,2.2938123,2.2957582,2.0602942
M0099,South Walker Creek Coal Mine, ,Australia,coal,Operating,-21.753393,148.443289,Exact,Stanmore SMC Pty Ltd,Stanmore Resources Ltd [100.0%],8.007,Surface,,60.0,Bituminous,Met,42.0,2.3552337,1.7281957,1.9572083,2.1285777,1.8647377,1.6732342,1.4682442,1.404738,2.0905766,1.7568927,1.9302999,2.0109854
M0101,Springsure Creek Coal Project, ,Australia,coal,Shelved,-24.008602,148.372046,Approximate,Adamelia Resources,Adamelia Resources [100%],,Underground,107,500.0,Bituminous,Thermal,110.4,1.6314837,1.3142304,1.3340154,1.6042142,1.8749422,1.4178277,1.3649696,0.80401933,1.2090695,1.1505165,1.4083573,1.416233
M0101,Springsure Creek Coal Project, ,Australia,coal,Shelved,-24.008602,148.372046,Approximate,Adamelia Resources,Adamelia Resources [100%],,Underground,107,500.0,Bituminous,Thermal,132.5,1.6314837,1.3142304,1.3340154,1.6042142,1.8749422,1.4178277,1.3649696,0.80401933,1.2090695,1.1505165,1.4083573,1.416233
M0102,Springvale Coal Mine, ,Australia,coal,Operating,-33.4006,150.105627,Exact,Centennial Springvale Pty Ltd; Boulder Mining Pty Ltd,Banpu PCL [100.0%],2.32,Underground,,500.0,Subbituminous,Thermal,16.7,0.977144,0.9409585,0.9500873,0.8112251,1.2127473,1.6614128,1.6262493,1.8258226,1.0766877,0.78488636,0.52284473,0.30388612
M0103,Tahmoor Coal Mine, ,Australia,coal,Operating,-34.2532732,150.5753104,Exact,Tahmoor Coal,SIMEC Mining Pty Ltd,,Underground,,500.0,Bituminous,Met,88.3,0.74885654,0.72900164,0.7350451,0.9044548,1.6171322,1.9363346,1.8518754,1.6968337,0.96731925,0.6029246,0.4367102,0.44207504
M0105,Tarrawonga Coal Mine, ,Australia,coal,Operating,-30.639584,150.167277,Exact,Tarrawonga Coal Pty Ltd,Whitehaven Coal Ltd [100.0%],1.67,Surface,,180.0,Subbituminous,Thermal & Met,5.8,0.9344028,1.0573645,0.9165039,0.7402654,0.39776924,0.51589644,0.4912123,0.69363654,0.4889109,0.5307797,0.5530351,0.6418956
M0106,Ulan Complex Coal Mine, ,Australia,coal,Operating,-32.242539,149.749697,Exact,Ulan Coal Mines Ltd,Glencore PLC [100.0%],10.79,Underground,137,225.0,Bituminous,Thermal,157.1,1.7637436,1.7009469,1.484597,0.8848023,0.66590035,0.9320573,0.9930676,1.1428021,0.4355419,0.5212969,0.79425704,0.8546687
M0107,United Wambo Coal Mine, ,Australia,coal,Operating,-32.549369,150.984787,Exact,United Collieries and Wambo Coal,Peabody Energy Corp [50.0%]; Glencore PLC,5.67,Surface,,60.0,Bituminous,Thermal & Met,29.8,1.3952136,1.3405266,1.0561424,0.64529556,0.87373036,1.5497575,1.3253723,1.5486877,0.74726844,0.43955767,0.5420232,0.76265186
M0108,Valeria Coal Mine, ,Australia,coal,Cancelled,-23.470142,148.033559,Approximate,Valeria Coal Holdings Pty Ltd,Glencore PLC [100.0%],,Surface,283,60.0,Bituminous,Thermal & Met,105.0,2.1782172,1.5744158,1.6090025,1.6667469,1.648407,1.3534938,1.2710199,1.0062261,1.6271223,1.2679716,1.6636038,1.8216515
M0109,Valeria South Coal Mine, ,Australia,coal,Cancelled,-23.3407382,147.85037,Approximate,Valeria Coal Holdings Pty Ltd,Glencore PLC [100.0%],,Surface,,60.0,Bituminous,Thermal & Met,7.4,2.1852067,1.5607357,1.6579211,1.7249382,1.7220991,1.4063145,1.3329482,1.0216305,1.6346176,1.2098355,1.6167929,1.8092424
M0110,Vickery Coal Mine, ,Australia,coal,Proposed,-30.76467,150.17894,Exact,Vickery Coal Pty Ltd,Whitehaven Coal Ltd [100.0%],,Surface,30,250.0,Bituminous,Met,66.2,1.1193635,1.3414043,1.1227623,0.8706647,0.6195736,0.5420265,0.5841725,0.72247374,0.33288717,0.44869116,0.50919354,0.77380574
M0110,Vickery Coal Mine, ,Australia,coal,Proposed,-30.76467,150.17894,Exact,Vickery Coal Pty Ltd,Whitehaven Coal Ltd [100.0%],,Surface,30,250.0,Bituminous,Met,80.9,1.1193635,1.3414043,1.1227623,0.8706647,0.6195736,0.5420265,0.5841725,0.72247374,0.33288717,0.44869116,0.50919354,0.77380574
M0111,Wallarah 2 Coal Project, ,Australia,coal,Shelved,-33.223341,151.390511,Exact,Wyong Areas Coal Joint Venture,Korea Mine Rehabilitation & Mineral Resources Corp [82.2%]; Centennial Wallarah Pty Ltd [5.0%],,Underground,,255.0,Subbituminous,Thermal,18.6,1.5213037,1.5272086,1.241416,0.5949166,1.2811496,1.7962768,1.7897773,1.4147708,0.56017053,0.4281063,0.5968541,1.0781024
M0112,Walton Coal Mine, ,Australia,coal,Cancelled,-23.58232637,149.2181492,Approximate,Walton Coal,Walton Coal [100%],,Surface,,60.0,Bituminous,Met,8.4,2.1412349,1.7085371,1.7576194,1.8350946,1.8503625,1.5128005,1.4769933,1.0643594,1.6115355,1.4766134,1.7113345,1.8716524
M0113,Wambo Underground Coal Mine, ,Australia,coal,Operating,-32.575524,151.006688,Exact,Wambo Coal Pty Ltd,Peabody Energy Corp [75.0%]; Sumiseki Holdings Inc,2,Underground,,500.0,Bituminous,Thermal & Met,44.2,1.311354,1.2458441,1.0036931,0.6426285,0.8666653,1.4364946,1.2864934,1.4136214,0.6900691,0.42110103,0.5062869,0.7522526
M0114,Wards Well Coal Mine, ,Australia,coal,Proposed,-21.598813,147.958654,Exact,Stanmore Resources Ltd,Stanmore Resources Ltd [100%],,Underground,,500.0,Bituminous,Met,110.4,2.5690265,1.8698363,2.1933537,2.5578218,2.4144976,2.0848002,1.9768116,1.7218578,2.3041742,1.8799181,1.9633168,2.1745362
M0115,Watermark Coal Mine, ,Australia,coal,Cancelled,-31.226757,150.438691,Approximate,Shenhua Group,China Energy Investment Corp [100.0%],,Surface,40.84,60.0,Bituminous,Thermal,31.5,1.2540406,1.4338094,1.3408136,0.92772734,0.66596943,0.5523697,0.6128482,0.6798731,0.28411347,0.4062198,0.5561938,0.8355074
M0116,Werris Creek Coal Mine, ,Australia,coal,Operating,-31.40698,150.6395,Exact,Werris Creek Coal Pty Ltd,Whitehaven Coal Ltd [100.0%],1.67,Surface,,190.0,Bituminous,Thermal & Met,20.8,1.2200086,1.382335,1.3046986,0.87513494,0.5665194,0.55561686,0.59290177,0.64732915,0.29843044,0.39552143,0.52207184,0.77638245
M0117,Wilpinjong Coal Mine, ,Australia,coal,Operating,-32.332,149.885,Exact,Wilpinjong Coal Pty Ltd,Peabody Energy Corp,13.28,Surface,,60.0,Bituminous,Thermal,69.7,1.5949302,1.532394,1.3180338,0.79931873,0.7126576,1.0463126,1.068813,1.2644929,0.4906449,0.4990527,0.6830352,0.7265712
M0117,Wilpinjong Coal Mine, ,Australia,coal,Proposed,-32.319056,149.867537,Exact,Wilpinjong Coal Pty Ltd,Peabody Energy Corp,,Surface,8,60.0,Bituminous,Thermal,5.3,1.5949302,1.532394,1.3180338,0.79931873,0.7126576,1.0463126,1.068813,1.2644929,0.4906449,0.4990527,0.6830352,0.7265712
M0118,Wilton and Fairhill Coal Projects, ,Australia,coal,Proposed,-23.41261,148.576971,Approximate,Futura Resources [50.00%]; Sojitz Development Pty Ltd [50.00%],Futura Resources [100%],,Surface,,60.0,Bituminous,Met,13.7,2.5385478,1.9205112,1.9866982,1.8803757,1.678047,1.458492,1.3623046,1.2144248,1.9896482,1.7527016,2.0693452,2.1960123
M0119,Winchester South Coal Mine, ,Australia,coal,Proposed,-22.1508629,148.1757381,Exact,Whitehaven WS Pty Ltd,Whitehaven Coal Ltd [100.0%],,Surface,,160.0,Bituminous,Met,166.5,2.5456393,1.8164376,2.0383673,2.2696943,2.088097,1.8322184,1.7131541,1.4604907,2.1157472,1.6261444,1.910728,2.0946338
M0120,Yallourn Coal Mine, ,Australia,coal,Operating,-38.195064,146.360402,Exact,EnergyAustralia Pty Ltd,CLP Holdings Ltd [100.0%],14.08,Surface,140,133.0,Lignite,Thermal,38.0,0.59432507,0.4092397,0.5997706,0.98411787,1.3379616,1.3278743,1.3327112,1.4817402,1.0890778,0.75449896,0.71747226,0.36280593
M0121,Yarrabee Coal Mine, ,Australia,coal,Operating,-23.317678,149.026371,Exact,Yanzhou Coal Mining Co,Shandong Energy Group Co Ltd [70.0%]; Shandong Guohui Investment Co Ltd [20.0%]; Shandong Caixin Asset Operation Co Ltd [10.0%],2.95,Surface,,60.0,Bituminous,Thermal & Met,15.5,2.6161165,2.0732346,2.1555119,2.1480932,1.9425527,1.7146703,1.5581763,1.369755,2.0649433,1.8551079,2.1143937,2.3066092
M0122,Barapukuria Coal Mine, ,Bangladesh,coal,Operating,25.547269,88.96062,Exact,Petrobangla,Petrobangla [100%],0.75,Underground,,328.0,Bituminous,Thermal,13.7,1.1056075,0.7451584,0.48788312,0.8645094,1.1662534,1.7098414,1.7687513,1.6028126,1.2457172,0.52402675,1.0366645,1.0931528
M0122,Barapukuria Coal Mine, ,Bangladesh,coal,Shelved,25.547269,88.96062,Exact,Petrobangla,Petrobangla [100%],,Underground,,328.0,Bituminous,Thermal,9.1,1.1056075,0.7451584,0.48788312,0.8645094,1.1662534,1.7098414,1.7687513,1.6028126,1.2457172,0.52402675,1.0366645,1.0931528
M0123,Dighipara Coal Mine, ,Bangladesh,coal,Proposed,25.416667,89.083333,Exact,Petrobangla,Petrobangla [100%],,Surface,5.03,60.0,Bituminous,Thermal,15.8,1.1686888,0.80622935,0.5175042,0.87018347,1.1337657,1.8682759,1.8854852,1.7194343,1.3033787,0.51130295,1.1047102,1.1780508
M0124,Phulbari Coal Mine, ,Bangladesh,coal,Proposed,25.9468733,89.5532405,Approximate,Global Coal Management Resources [GCM]; PowerChina,GCM Resources PLC [100.0%],,Surface,,60.0,Bituminous,Thermal,84.0,0.52765346,0.48018354,0.5204668,1.3367846,1.1689656,1.5241287,1.5408015,1.5320592,0.96052516,0.76663303,1.2589788,0.8467685
M0125,Vrtliste Coal Mine, ,Bosnia and Herzegovina,coal,Operating,44.14001979,18.09803137,Exact,RMU Kakanj doo,Elektroprivreda BiH dd [90.4%]; others [9.6%],0.76,Surface,,50.0,Subbituminous,Thermal,0.9,0.38177925,0.31840226,0.48860177,0.27124763,0.39933443,0.3728982,0.37522432,0.2103217,0.35218072,0.4918658,0.37810692,0.6743568
M0126,Kreka Coal Mine, ,Bosnia and Herzegovina,coal,Operating,44.52,18.606111,Approximate,RMU Kreka doo,Elektroprivreda BiH dd [90.4%]; others [9.6%],1.29,Underground & Surface,,50.0,Lignite,Thermal,1.5,0.6726924,0.56327254,0.41913646,0.4711009,0.5701933,0.48686242,0.29108068,0.3131511,0.28387755,0.6203087,0.38001972,0.80286336
M0127,Masama Coal Mine, ,Botswana,coal,Operating,-24.053219,25.8876081,Exact,Minergy Ltd,Minergy Ltd [100%],1.2,Underground & Surface,67,130.0,Bituminous,Thermal,12.3,2.3404915,1.5874321,1.4503928,0.99504554,0.66115475,0.97813606,1.1454542,1.1783824,1.8395402,2.3429296,2.205997,2.510866
M0128,Mmamabula Coal Mine, ,Botswana,coal,Proposed,-23.609295,26.774952,Approximate,Maatla Resources,Maatla Resources [100%],,Underground & Surface,43,60.0,Bituminous,Thermal,7.3,2.8880668,1.9776851,2.1015964,1.5334717,0.97063786,1.1679908,1.4297981,1.7502977,2.736027,3.2669115,2.768968,2.9703767
M0130,Guaíba Coal Mine, ,Brazil,coal,Shelved,-30.015319,-51.532337,Approximate,Copelmi Mineração Ltda,Copelmi Mineração Ltda [100%],,Surface,,50.0,Subbituminous,Thermal,8.6,1.6195393,0.9737221,1.2102861,0.9222801,0.65087384,0.44022608,0.5710676,1.0243208,1.4263854,1.687677,1.7725412,2.1190681
M0131,Butiá Leste Mine, ,Brazil,coal,Operating,-30.102394,-51.938235,Exact,Copelmi Mineração Ltda,Copelmi Mineração Ltda [100%],1.02,Surface,,50.0,Subbituminous,Thermal,1.2,1.4071383,0.9089588,1.1234208,0.9446229,0.57269907,0.3431267,0.47567663,1.0336863,1.3245311,1.4767914,1.5787991,1.8253098
M0132,Seival Coal Mine, ,Brazil,coal,Operating,-31.449159,-53.707527,Exact,Copelmi Mineração Ltda,Copelmi Mineração Ltda [100%],2.12,Surface,,50.0,Subbituminous,Thermal,2.5,1.6829021,0.8822305,1.3111743,1.1913276,0.7455028,0.55588317,1.0989636,1.2506878,1.5327548,1.6626643,1.9149477,2.1276212
M0134,Han Seng Coal Mine, ,Cambodia,coal,Operating,14.1857983,104.3192826,Approximate,Han Seng Coal Mine Co,Han Seng Coal Mine Co [100%],0.06,Underground,,494.0,Lignite,Thermal,0.4,1.5260427,1.0492066,0.2925486,0.54600364,0.75902206,1.5038744,1.4783313,1.5594611,0.8015531,0.87861097,1.5883973,2.1771464
M0135,Aries Coal Mine, ,Canada,coal,Cancelled,52.400401,-114.830002,Approximate,Ram River Coal,Ram River Coal [100%],,Surface,200,60.0,Bituminous,Met,21.0,1.1604444,0.89988923,0.7238155,0.6220124,0.47898802,0.48036563,0.53057134,0.25385988,0.662361,0.6953715,1.0953332,1.1642743
M0136,Bingay Coal Mine, ,Canada,coal,Cancelled,50.197546,-114.975588,Exact,Centermount,Centermount [100%],,Surface,4.2,60.0,Bituminous,Met,5.3,1.0255227,0.97789013,0.8504164,0.75795406,0.5309559,0.6939541,0.83759755,0.8055376,0.98102117,0.8503732,1.058837,0.87893236
M0137,Brule Coal Mine, ,Canada,coal,Operating,55.38667,-121.82,Exact,ERP Compliant Fuels,ERP Compliant Fuels [100%],1.65,Surface,35.24,60.0,Bituminous,Thermal & Met,8.7,1.3156083,1.3505287,0.9372427,0.9038097,0.70506334,1.0883973,1.0968244,1.5258541,1.7038491,1.4172097,1.5177317,1.3590589
M0138,Coal Valley Coal Mine, ,Canada,coal,Operating,53.0518755,-116.7982727,Approximate,Prairie Mines and Royalty LLC,Westmoreland Coal Co [100.0%],1.92,Surface,206.6,60.0,Bituminous,Thermal,10.1,1.7647913,1.5562625,1.1211644,0.9688351,0.67681825,0.8013727,0.5578743,0.80422133,1.132047,1.1796196,1.6044904,1.5916638
M0138,Robb Trend Coal Mine Expansion Project, ,Canada,coal,Cancelled,53.0518755,-116.7982727,Approximate,Prairie Mines and Royalty LLC,Westmoreland Coal Co [100.0%],,Surface,57.28,50.0,Subbituminous,Thermal,,1.7647913,1.5562625,1.1211644,0.9688351,0.67681825,0.8013727,0.5578743,0.80422133,1.132047,1.1796196,1.6044904,1.5916638
M0139,Crown Mountain Coal Project, ,Canada,coal,Proposed,49.8066666,-114.7266666,Approximate,NWP Coal Canada,Jameson Resources [77.9%]; Bathurst Resources Ltd [22.1%],,Surface,12.8,60.0,Bituminous,Met,10.0,1.2567298,1.108526,0.9527432,0.8643068,0.6644395,0.89202523,0.93802226,0.9302236,1.1589724,1.0039757,1.4008218,1.1038375
M0140,Elkview Coal Mine, ,Canada,coal,Operating,49.742507,-114.823906,Exact,Teck Coal Partnership,Teck Resources Ltd [100.0%],5.2,Surface,124,60.0,Bituminous,Met,27.3,1.1054655,0.99140024,0.86351,0.7926419,0.571561,0.8258901,0.9136938,0.888967,1.0646989,0.87414783,1.2577099,0.961399
M0141,Estevan Coal Mine, ,Canada,coal,Operating,49.092848,-102.886072,Exact,Prairie Mines and Royalty LLC,Westmoreland Coal Co [100.0%],4.34,Surface,203,50.0,Subbituminous,Thermal,5.2,1.77723,2.0653453,0.9243964,1.2833897,0.8864033,0.81187975,0.9824442,0.4027544,1.1253214,1.213519,2.1961117,1.7132642
M0142,Fording River Operations, ,Canada,coal,Operating,50.19284,-114.86473,Exact,Teck Coal Partnership,Teck Resources Ltd [100.0%],7.99,Surface,198,60.0,Bituminous,Met,42.0,1.2189822,1.1258012,0.9481543,0.832974,0.5970762,0.765108,0.8781451,0.8559043,1.0791867,0.98652184,1.2555547,1.0671742
M0143,Genesee Coal Mine, ,Canada,coal,Operating,53.314555,-114.286386,Exact,Capital Power LP; Westmoreland Mining LLC,Capital Power LP [100%],5,Surface,74,50.0,Subbituminous,Thermal,6.0,1.3199228,1.2056876,0.7749001,0.7676619,0.54860944,0.5544228,0.53567994,0.5644805,1.0008023,1.0049598,1.320652,1.4133915
M0144,Gething Coal Mine, ,Canada,coal,Shelved,56.038803,-122.305087,Exact,CKD Mines,CKD Mines [100%],,Underground,,494.0,Bituminous,Met,65.8,1.1548092,1.1035717,0.7844646,0.7832589,0.62033916,0.9612462,0.9390878,1.3638773,1.4829798,1.205563,1.2080889,1.2355368
M0145,Grassy Mountain Coal Project, ,Canada,coal,Cancelled,49.68924,-114.41896,Approximate,Northback Holdings,Hancock Corp [100.0%],,Surface,15,430.0,Bituminous,Met,87.8,1.9072347,1.709557,1.3490554,1.1940359,0.9664252,1.2223845,1.0983225,1.137824,1.5224597,1.4572852,2.1213608,1.6888535
M0146,Greenhills Coal Mine, ,Canada,coal,Operating,50.20028,-115.0083,Exact,Teck Coal Partnership; POSCO Canada Ltd,Teck Resources Ltd [100.0%],6.27,Surface,126,60.0,Bituminous,Met,32.9,1.0255227,0.97789013,0.8504164,0.75795406,0.5309559,0.6939541,0.83759755,0.8055376,0.98102117,0.8503732,1.058837,0.87893236
M0148,Huguenot Surface Coal Mine, ,Canada,coal,Shelved,55.000742,-120.829716,Approximate,Colonial Coal International Corp,Colonial Coal International Corp [100%],,Surface,75.92,60.0,Bituminous,Met,14.2,1.6530545,1.6873597,1.1839938,1.0463996,0.849954,1.2041901,1.3080099,1.6845963,1.8049084,1.5827427,1.7573261,1.6297361
M0149,Huguenot Underground Coal Mine, ,Canada,coal,Shelved,55.000742,-120.829716,Approximate,Colonial Coal International Corp,Colonial Coal International Corp [100%],,Underground,75.92,494.0,Bituminous,Met,6.6,1.6530545,1.6873597,1.1839938,1.0463996,0.849954,1.2041901,1.3080099,1.6845963,1.8049084,1.5827427,1.7573261,1.6297361
M0150,Line Creek Coal Mine, ,Canada,coal,Operating,49.917,-114.776,Exact,Teck Coal Partnership,Teck Resources Ltd [100.0%],3.24,Surface,82,60.0,Bituminous,Thermal & Met,17.0,1.2102987,1.0964302,0.933532,0.83623517,0.6093427,0.828851,0.9105927,0.89406353,1.101785,0.95641655,1.2971117,1.0670655
M0151,Michel Coal Project, ,Canada,coal,Proposed,49.729272,-114.867851,Exact,North Coal,North Coal [100%],,Surface,140,60.0,Bituminous,Met,10.5,0.9177813,0.8349761,0.7433402,0.695181,0.49028927,0.72299755,0.8477403,0.8107281,0.9324289,0.72307664,1.0646518,0.7934766
M0152,Murray River Coal Mine, ,Canada,coal,Proposed,55.141319,-121.0796155,Approximate,HD Mining,HD Mining International [100.0%],,Underground,160,800.0,Bituminous,Met,125.2,1.4778898,1.538726,1.0780456,0.9758232,0.7910189,1.1522489,1.2234788,1.5978466,1.736293,1.485413,1.6171962,1.4804668
M0154,Poplar River Coal Mine, ,Canada,coal,Operating,49.2127113,-105.4714202,Exact,Prairie Mines and Royalty LLC,Westmoreland Coal Co [100.0%],3.3,Surface,74.88,50.0,Lignite,Thermal,4.0,2.349547,2.4383128,1.322778,1.3526478,0.7582929,0.9515015,0.99652904,0.4456724,1.1817193,1.4991326,2.6747277,2.1616116
M0156,Sukunka Coal Mine, ,Canada,coal,Cancelled,55.1964,-121.569,Approximate,Glencore PLC,Glencore PLC [100%],,Underground & Surface,80.56,60.0,Bituminous,Met,16.8,1.3105286,1.3609021,0.98098105,0.93111825,0.73828995,1.1056054,1.1355244,1.507699,1.6767302,1.4000368,1.4726291,1.3212045
M0157,Tent Mountain Coal Mine, ,Canada,coal,Cancelled,49.5542903,-114.707508,Exact,Evolve Power Ltd,Evolve Power Ltd [100%],,Surface,,60.0,Bituminous,Met,5.8,1.4597965,1.3144461,1.1073047,0.9821333,0.70514697,1.0142813,1.0662059,1.0522351,1.3026233,1.1377562,1.6177303,1.2919652
M0158,Vista Coal Mine, ,Canada,coal,Operating,53.3961117,-117.6478052,Exact,Coalspur Mines Ltd,VE Holdings LLC [100.0%],6.95,Surface,99.84,60.0,Bituminous,Thermal,36.5,1.6961582,1.4565485,1.0249047,0.8778331,0.60781956,0.7627571,0.5439011,0.8681942,1.2133054,1.1875082,1.630733,1.5888312
M0158,Vista Coal Mine, ,Canada,coal,Proposed,53.3961117,-117.6478052,Approximate,Coalspur Mines Ltd,VE Holdings LLC [100.0%],,Surface,6.29,50.0,Subbituminous,Thermal,5.0,1.6961582,1.4565485,1.0249047,0.8778331,0.60781956,0.7627571,0.5439011,0.8681942,1.2133054,1.1875082,1.630733,1.5888312
M0158,Vista Coal Mine, ,Canada,coal,Proposed,53.3961117,-117.6478052,Approximate,Coalspur Mines Ltd,VE Holdings LLC [100.0%],,Surface,,50.0,Subbituminous,Thermal,,1.6961582,1.4565485,1.0249047,0.8778331,0.60781956,0.7627571,0.5439011,0.8681942,1.2133054,1.1875082,1.630733,1.5888312
M0159,Willow Creek Coal Mine, ,Canada,coal,Operating,55.6218806,-122.2174581,Exact,ERP Compliant Fuels,ERP Compliant Fuels [100%],0.98,Surface,,50.0,Bituminous,Thermal & Met,4.4,1.3239942,1.3553656,0.94633985,0.88939226,0.64996934,1.0577679,1.059392,1.5165677,1.7024105,1.4112918,1.4803416,1.3874056
M0160,Wolverine Coal Mine, ,Canada,coal,Operating,55.0608535,-121.2530692,Exact,ERP Compliant Fuels,ERP Compliant Fuels [100%],1.01,Surface,10.47,60.0,Bituminous,Met,5.3,1.3700967,1.444111,1.0240792,0.9503033,0.76696277,1.1397293,1.1888847,1.5547538,1.70471,1.4388062,1.5324477,1.3746864
M0161,Wolverine-Hermann Coal Mine, ,Canada,coal,Proposed,55.0608535,-121.2530692,Approximate,ERP Compliant Fuels,ERP Compliant Fuels [100%],,Surface,,60.0,Bituminous,Met,5.3,1.3700967,1.444111,1.0240792,0.9503033,0.76696277,1.1397293,1.1888847,1.5547538,1.70471,1.4388062,1.5324477,1.3746864
M0163,Aimin Wendu Coal Mine, ,China,coal,Proposed,43.7025,120.771111,Exact,Inner Mongolia Pingmei Ar Khorchin Banner Coal Mine Company,Hebei Qian'an Chemical Company,,Underground,11.98,350.0,Lignite,Thermal,5.3,1.9165179,2.029038,1.7727883,1.9004087,1.3268458,0.5473856,1.2606429,0.67836815,0.9099038,1.6820772,2.2344604,2.5659187
M0164,Anhui Banji Coal Mine, ,China,coal,Operating,32.899945,116.228774,Exact,China Coal Xinji Energy,China Coal [30%]; China Energy [5%]; Jingneng Power [1%]; Beijing Energy [6%]; Guohua Industry [3%]; Huainan Industial Development Group [7%]; China Shipping [5%],,Underground,33.6,456.0,Bituminous,Met,47.5,0.70434564,1.0501946,0.8935396,0.68465704,0.73809826,1.0647945,0.9074106,0.86565816,1.0985267,1.2356607,0.8321812,0.42861667
M0165,Anjialing Open-Pit Mine, ,China,coal,Operating,39.449488,112.360569,Exact,China Coal Pingshuo Group,China Coal [57%]; HKSCC Nominees Limited [30%]; Others [13%],,Surface,,60.0,Bituminous,Thermal,78.1,2.3649344,1.8967162,1.7467194,1.4907955,1.5029147,0.96627295,0.702841,0.49650165,0.83926415,1.3735406,2.0913944,2.7305539
M0166,Antaibao Surface Mine, ,China,coal,Operating,39.474754,112.311939,Exact,China Coal Pingshuo Group,China Coal [57%]; HKSCC Nominees Limited [30%]; Others [13%],,Surface,,60.0,Bituminous,,78.1,2.4534218,1.9768643,1.8374182,1.5304698,1.5348278,0.98155785,0.6638309,0.45548388,0.82829756,1.4267255,2.198861,2.8592842
M0167,Ba Leng Coal Mine, ,China,coal,Proposed,38.474786,106.668299,Approximate,Etuoke Qianqi Hengyuan Investment Industrial Company,Jinneng Group,,Underground,82.2,456.0,Bituminous,Thermal,126.7,1.2667766,0.96039456,0.59529257,0.5067165,0.7514158,0.6877678,1.3638531,0.98471284,1.6766446,1.0223956,1.0015835,1.1059508
M0168,Baijia Haizi Coal Mine, ,China,coal,Proposed,38.356604,108.950826,Approximate,Inner Mongolia Ordos Lianhai Coal Industry Company,Inner Mongolia Huineng Coal and Electricity Group [60%]; Inner Mongolia Ordos Investment Holding Group [38%]; Bayannaoer Zhuoyue Building Materials Company [1%],,Underground,169.19,456.0,Bituminous,Thermal,237.5,1.9538274,1.0912188,1.3631865,1.4186693,1.4223907,0.74501395,1.351519,0.9895909,1.1509256,0.6516799,1.761593,2.3306897
M0169,Bailongshan No. 1 Coal Mine, ,China,coal,Proposed,25.166667,104.566667,Exact,Huaneng Diandong Mining Company,China Huaneng [34%]; Shanghua Investment Company [8%]; HKSCC Nominees Limited [25%]; HeBei Construction & Investment Group [3%]; Others [30%],,Underground,17.85,456.0,Anthracite,Thermal,84.3,0.9467822,1.0168114,1.0799567,0.9504337,1.070015,0.8722275,1.0022652,0.7608286,0.74907804,0.7731906,0.7952874,0.9284562
M0170,Baishihu Surface Mine, ,China,coal,Operating,43.902992,94.665857,Exact,Yiwu Gunaghui Mining Company,Guanghui Energy Holding Company [94%]; Xinjiang Guanghui Industry Investment Group [5%]; Xinjiang Production and Construction Corps [1%],,Surface,33.09,30.0,Bituminous,Thermal,38.2,0.98272526,1.1418586,2.95782,2.8615518,3.9649181,4.8658195,4.942726,3.963233,3.541872,1.8455037,1.0965183,0.77559793
M0171,Baishupo Coal Mine, ,China,coal,Proposed,39.725303,111.335131,Exact,Zhungeer Banner Baishupo Coal Company,Zhangjiagang Free Trade Zone Liyuan Energy Investment [11%]; Shanxi Coking Coal Group [7%]; Shanxi Financial Investment Holding Group [9%]; Mizuki Hongdao [Beijing] Asset Management Company [6%]; Inner Mongolia Jinyue Energy Group [8%]; Others [59%],,Underground,5.71,456.0,Bituminous,Thermal,19.0,1.0885303,1.0410206,1.1540623,0.87923884,1.0616995,0.8279496,1.2255754,0.7287146,1.0350102,0.8022996,1.2685723,1.4281005
M0172,Baiyanghe Coal Mine, ,China,coal,Proposed,44.048539,88.529268,Exact,Xinjiang Mingji Energy Company,Shandong Lutai Holding Group [75%]; Ming Kei Energy Investment Company [25%],,Underground,20.57,456.0,Bituminous,Thermal,19.0,1.49834,1.2540661,0.76751626,0.6978542,1.3502171,0.9532522,1.0207117,0.5440179,0.39063096,0.7597859,1.4169688,1.6527902
M0173,Baiyinhua Haizhou No. 4 Surface Mine, ,China,coal,Operating,44.947927,118.666974,Exact,Inner Mongolia Baiyinhua Haizhou Surface Mine Company,Liaoning Energy Industry Holding Group [83%]; China Huaneng [5%],,Surface,25,456.0,Lignite,Thermal,10.0,3.346101,3.1919274,2.9480886,2.6915514,2.0966601,1.2291529,1.3947186,1.116598,1.7767565,2.7349172,3.4265552,4.186626
M0173,Baiyinhua Haizhou No. 4 Surface Mine, ,China,coal,Operating,44.947927,118.666974,Exact,Inner Mongolia Baiyinhua Haizhou Surface Mine Company,Liaoning Energy Industry Holding Group [83%]; China Huaneng [5%],,Underground,,456.0,Lignite,Thermal,40.9,3.346101,3.1919274,2.9480886,2.6915514,2.0966601,1.2291529,1.3947186,1.116598,1.7767565,2.7349172,3.4265552,4.186626
M0174,Baiyinhua No. 2 Surface Mine, ,China,coal,Operating,44.809523,118.500466,Exact,Inner Mongolia Xilin Gol Baiyinhua Coal and Electricity Company,State Power Investment Corporation [SPIC] [91.2%]; Huolinhe Coal Industry Group [8%]; Others [1%],,Surface,25.81,272.0,Lignite,Thermal,51.9,3.4000797,3.1824374,3.0092795,2.704205,2.1409895,1.3977221,1.5485307,1.2201182,1.9203184,2.8065958,3.460204,4.2173977
M0175,Baiyinhua No.1 Surface Mine, ,China,coal,Operating,44.786827,118.455621,Exact,Inner Mongolia Pingxi Baiyinhua Coal Industry Group,China Energy [51%]; China Cinda Asset Management [32%]; Chifeng City Economic and Information Commission [17%],,Surface,19.92,50.0,Lignite,Thermal,10.7,3.4000797,3.1824374,3.0092795,2.704205,2.1409895,1.3977221,1.5485307,1.2201182,1.9203184,2.8065958,3.460204,4.2173977
M0176,Baiyinhua No.3 Surface Mine, ,China,coal,Operating,44.897826,118.615908,Exact,Inner Mongolia Baiyinhua Mengdong Surface Coal Industry Company,State Power Investment Corporation [SPIC] [43%]; Huolinhe Coal Industry Group [23%]; Industrial and Commercial Bank of China [33%],,Surface,46.57,183.0,Lignite,Thermal,51.3,3.3659892,3.1882071,2.9870088,2.6982675,2.1220922,1.3192827,1.4912338,1.1736571,1.870122,2.7827141,3.4493263,4.1954384
M0177,Balasu Coal Mine, ,China,coal,Operating,38.265057,109.208519,Exact,Shaanxi Yanchang Petroleum and Balasu Coal Industry Company,Shaanxi Yanchang Petroleum Group 84%; Others 16%,,Underground,300.4,456.0,Bituminous,Thermal,237.5,1.8448942,1.0070564,1.2593461,1.2842383,1.2854277,0.686731,1.382784,1.0441878,1.136577,0.61876273,1.6351179,2.200171
M0178,Baode Coal Mine, ,China,coal,Operating,38.950871,111.089441,Exact,China Shenhua Energy,China Energy [69%]; HKSCC Nominees Limited [17%]; Others [14%],,Underground,55.9,456.0,Bituminous,Thermal,79.2,0.8316644,0.91818386,1.2385601,0.69718486,1.0518798,0.8097224,1.2207549,0.72161305,1.0659419,0.74452806,0.8968523,0.96637464
M0178,Baode Coal Mine, ,China,coal,Operating,38.950871,111.089441,Exact,China Shenhua Energy,China Energy [69%]; HKSCC Nominees Limited [17%]; Others [14%],,Underground,55.9,456.0,Bituminous,Thermal,126.7,0.8316644,0.91818386,1.2385601,0.69718486,1.0518798,0.8097224,1.2207549,0.72161305,1.0659419,0.74452806,0.8968523,0.96637464
M0179,Baodian Coal Mine, ,China,coal,Operating,35.427152,116.836876,Exact,Yanzhou Coal Mining Company,Shandong Energy [46%]; HKSCC Nominees Limited [39%]; Others [15%],,Underground,37.01,456.0,Bituminous,Thermal,95.0,0.5261086,0.8439963,0.9367255,0.7235941,1.0829027,1.3244674,1.381989,0.81755936,0.66274256,0.79640853,0.4803411,0.24357101
M0180,Baoqing Chaoyang Surface Coal Mine, ,China,coal,Proposed,46.271618,132.573834,Exact,Guoneng Baoqing Coal Electricity Chemical Company,China Energy [90%]; Baoqing County State Owned Esset Management Company [10%],,Surface,76.8,50.0,Lignite,Thermal,9.8,1.7571679,2.0203698,1.5247893,1.4516883,1.4108081,1.2511339,1.4320184,1.1681366,1.1548325,1.7698232,1.8198311,2.1871552
M0181,Beishan Coal Mine, ,China,coal,Operating,44.538798,90.366812,Exact,Xinjiang Beishan Mining Company,Xinjiang Beishan Huiyuan Investment Company [80%]; Xinjiang Agricultural Sixth Division Aluminum Company [20%],,Surface,7.718,60.0,Bituminous,Thermal,15.6,1.9978533,1.5393713,1.1906793,1.6124789,3.5456994,3.80157,3.680208,2.925334,2.168515,0.6383372,1.4433955,2.212007
M0182,Beixinyao Coal Mine, ,China,coal,Operating,39.106574,112.341358,Exact,Datong Group Dongzhouyao Coal Company,Shanxi State-Owned Capital Investment Operation Company [65%]; China Cinda Asset Management Company [30%]; Shanxi Coal Transportation and Sales Group [2%]; Shanxi Shuozhou Mining Company; Datong City State-Owned Assets Supervision and Administration Commission [1%]; Xinzhou Coal Industry Bureau [2%],,Underground,53.3,456.0,Bituminous,Thermal,63.3,1.9827052,1.6109382,1.5001004,1.1782224,1.2384542,0.75353694,0.6366115,0.5045615,0.66710126,1.1110121,1.758078,2.3111832
M0183,Beskuduk Coal Mine, ,China,coal,Operating,44.174995,91.739878,Approximate,Hami Hexiang Industry and Trade Company,China Coal [46%]; Ningbo Hesheng Group [20%]; Xinjiang Coal Trading Center Company [10%],,Surface,15.02,50.0,Subbituminous,Thermal,1.8,2.9995651,2.598253,2.6758766,2.859419,4.443574,4.2774796,4.344151,3.3535545,2.795672,2.2127838,2.6132483,2.797717
M0184,Boli Coal Mine, ,China,coal,Proposed,37.427284,113.576734,Exact,Yangquan Coal Industry Group Boli Coal Mine Company,Shanxi Huayang Group New Energy Company [70%]; Shanxi Chuangrei New Energy Investment Company [30%],,Underground,107.53,456.0,Anthracite,Thermal,140.5,1.6191844,1.2571423,1.203028,0.9735073,0.9806671,0.67034376,0.43148476,0.39463025,0.45056355,0.87767315,1.6270927,2.1026201
M0185,Boqizhang Coal Mine, ,China,coal,Operating,39.808962,112.845462,Exact,Shanxi Coal Transportation and Sales Group Boqizhang Coal Industry Company,Jinneng Group [26%]; China Energy [25%]; Zuoyun Kaihao Industrial Company [49%],,Underground,6.37,456.0,Bituminous,,19.0,2.2805667,1.929802,1.8505242,1.6386913,1.6068056,1.1165035,0.794995,0.63063073,0.9970101,1.4974045,2.143311,2.6521049
M0186,Buertai Coal Mine, ,China,coal,Operating,39.495115,109.973302,Exact,China Shenhua Energy Company,China Energy [69%]; HKSCC Nominees Limited [17%]; Others [14%],,Underground,192.6,456.0,Bituminous,Thermal,316.6,2.4528778,1.8374553,1.8688071,1.7577468,1.8962009,1.2108775,1.3748362,0.7338621,1.2421612,1.2872057,2.337128,2.9414918
M0187,Buliangou Coal Mine, ,China,coal,Operating,40.012229,111.336127,Exact,Inner Mongolia Mengtai Buliangou Coal Industry Company,Inner Mongolia Mengtai Group [49%]; China Huadian [35%]; Others [16%],,Underground,33.21,456.0,Bituminous,Thermal,285.0,1.9405339,1.6854997,1.6950483,1.3403641,1.4436433,1.1410048,1.4310529,0.9193973,1.4331441,1.3341719,2.0022671,2.4209173
M0188,Buzhaoba Surface Mine, ,China,coal,Operating,23.800855,103.180577,Exact,Yunnan Xiaolongtan Mining Administration,Yunnan Xiaolongtan Mining Administration,,Surface,,50.0,Lignite,Thermal,11.6,1.3127583,1.545168,1.9943862,1.6521834,1.7483116,1.4986296,1.1284192,0.55403876,0.67852277,0.8552107,0.95008564,1.0436435
M0189,Chagannur No.1 Coal Mine, ,China,coal,Proposed,43.553884,115.167883,Exact,Xilingol Fengfeng Energy Company,Jizhong Energy Group [48%]; China Huarong Asset Management Company [2%]; China Energy Investment Corporation [49%]; Others [1%],,Underground,83.4,456.0,Lignite,Thermal,25.6,2.5113776,1.9554007,2.4066508,2.1811652,2.1431406,1.406613,1.4657291,0.95223683,1.6440835,2.4817386,2.8104117,3.2002063
M0190,Chahasu Coal Mine, ,China,coal,Mothballed,39.302564,109.965281,Exact,Guodian & Jiantou Inner Mongolia Energy Investment Company,China Energy [50%]; Hebei Construction & Investment Group [50%],,Underground,155.8,456.0,Bituminous,Thermal,158.3,2.4232264,1.7768291,1.8478382,1.6412698,1.765433,1.0965325,1.4160323,0.7751562,1.2428542,1.2386525,2.2785745,2.903283
M0191,Chaigou Coal Mine, ,China,coal,Operating,39.881266,112.993203,Exact,Shanxi Huairen Lianshun Xida Chaigou Coal Industry Company,Shanxi Zhongmei Shuntong Coal Industry Company [35%]; Huiyong Holding Group [30%]; Beijing Yunduan Technology Development Company [10%]; Beijing Orchid Industry and Trade Group [10%]; Others [15%],,Underground,20.08,456.0,Bituminous,Thermal,126.7,2.2652137,1.909683,1.8307068,1.6430953,1.563212,1.0553565,0.70350826,0.6226657,0.9649163,1.5103402,2.1429784,2.6172795
M0192,Changcheng No. 3 Coal Mine, ,China,coal,Proposed,38.369137,106.57545,Exact,Otog Front Banner Changcheng No.3 Mining Company,Shandong Energy [43%]; State Grid Company [10%]; China Huadian Group [16%]; Others [30%],,Underground,49.87,456.0,Bituminous,Met,79.2,1.5833689,1.1208429,0.7045776,0.5851149,0.7184211,0.7086535,1.3708452,0.9920268,1.7678726,1.0802015,1.2390668,1.5162011
M0193,Changcheng No. 5 Coal Mine, ,China,coal,Operating,38.322181,106.529516,Exact,Otog Front Banner Changcheng No.5 Mining Company,Shandong Energy [43%]; State Grid Corporation of China [16%]; China Huadian [16%]; HKSCC Nominees Limited [6%]; Shandong Development Investment Holding Group [2%]; Others [17%],,Underground,14.66,456.0,Bituminous,Thermal & Met,28.5,1.6270194,1.0496527,0.6760401,0.61726,0.7299649,0.7361316,1.3777615,1.0164732,1.7765108,1.0205567,1.2339922,1.5957494
M0194,Changcheng No. 6 Coal Mine, ,China,coal,Operating,38.299084,106.53429,Exact,Otog Front Banner Changcheng No.6 Mining Company,Shandong Energy [43%]; State Grid Corporation of China [13%]; Inner Mongolia Shuangxin Energy Chemical Company [28%]; Beijing Huirong Shengjing Equity Investment Fund Management Center [4%]; Ordos Antel Investment Company [3%],,Underground,9.43,456.0,Bituminous,Thermal & Met,23.7,1.6270194,1.0496527,0.6760401,0.61726,0.7299649,0.7361316,1.3777615,1.0164732,1.7765108,1.0205567,1.2339922,1.5957494
M0195,Changping Coal Mine, ,China,coal,Operating,35.911636,112.844663,Exact,Shanxi Changping Coal Industry Company,Jinneng Group [68%]; Others [32%],,Underground,54.91,456.0,Anthracite,Thermal,140.5,0.84124357,0.62417936,0.53454125,0.27960786,0.59448975,0.7483965,0.662142,0.7422818,0.42613024,0.2812458,0.72803706,1.0794857
M0196,Chengzhuang Coal Mine, ,China,coal,Operating,35.612799,112.72638,Exact,Jincheng Blue Flame Coal Industry Company,Jinneng Group,,Underground,74.33,456.0,Anthracite,Thermal,224.7,0.88586336,0.5363625,0.3733336,0.32069135,0.5090483,0.6248373,0.6798802,0.74905694,0.32102886,0.28157693,0.7821497,1.2870467
M0197,Da'an Coal Mine, ,China,coal,Proposed,44.997659,115.334804,Exact,Abaga Banner Da'an Mining Company,Inner Mongolia Dinghua Industrial Group,,Underground,19.77,456.0,Bituminous,,19.0,3.6049967,3.2648895,3.3311875,3.0737104,2.6924703,1.923965,1.1931012,1.4652476,2.2567084,3.3805265,3.6188154,4.272768
M0198,Dafanpu Coal Mine, ,China,coal,Operating,39.762206,111.213023,Exact,Inner Mongolia Jungar Banner Liliang Coal Industry Company,Kinetic Mines And Energy,,Underground,9.61,456.0,Bituminous,Thermal,102.9,1.4366546,1.2368634,1.2755754,1.0709263,1.1808351,0.9169448,1.336231,0.75729865,1.1466154,0.929096,1.5541368,1.7543178
M0199,Dafosi Coal Mine, ,China,coal,Operating,35.062428,107.960069,Exact,Shaanxi Bingchang Dafosi Mining Company,Shaanxi Coal and Chemical Industry Group [56.8%]; Binxian Coal Company [5%]; Shaanxi Investment Group [5%]; Others [33%],,Underground,71.29,456.0,Bituminous,Thermal,126.7,0.6157739,0.23040472,0.45184097,0.24650425,0.40432587,0.68627596,1.0886343,0.96820176,0.8931811,0.37471738,0.47943616,0.6136061
M0200,Dahaize Coal Mine, ,China,coal,Operating,38.422179,109.277001,Exact,China Coal Shaanxi Yulin Energy Chemical Company,China Coal,,Underground,265.63,456.0,Bituminous,Thermal,237.5,1.8862456,1.0117604,1.2597228,1.2981849,1.2899143,0.68517876,1.4176815,1.0836539,1.1458274,0.62640524,1.65198,2.2721558
M0201,Dalaihushuo Coal Mine, ,China,coal,Proposed,45.382698,119.486564,Exact,Inner Mongolia Jimei Mining Industry Company,Jilin Province Coal Industry Group [41%]; Tibet Hengyisheng Investment Company [39%]; Fude Life Insurance Company [20%],,Underground,37.74,456.0,Bituminous,Thermal,95.0,3.8883946,3.709099,3.255014,2.9116669,2.223278,0.8773614,1.3442816,1.1511945,1.7552599,3.00033,3.8568678,4.91129
M0202,Daliuta Coal Mine, ,China,coal,Operating,39.263103,110.234325,Exact,China Shenhua Energy,China Energy [69%]; HKSCC Nominees Limited [17%]; Others [14%],,Underground,126.18,456.0,Bituminous,Thermal,285.0,2.2812757,1.7271465,1.8334739,1.6179714,1.7525176,1.1341898,1.4453552,0.7550393,1.2391381,1.2563033,2.19723,2.682896
M0204,Dananhu No. 1 Coal Mine, ,China,coal,Operating,42.382334,93.018391,Exact,State Grid Corporation of China Hami Coal & Energy Company,China Energy,,Underground,75.28,456.0,Bituminous,Thermal,158.3,0.65416455,0.5472117,0.33159706,1.0466721,1.5452324,1.4775354,1.5908489,0.8896837,0.3680834,0.39375266,0.35789624,0.66996837
M0205,Dananhu West No. 5 Coal Mine, ,China,coal,Operating,42.326761,93.352559,Exact,Xukuang Group Hami Energy Company,China Energy [23%]; Xuzhou Coal Mining Group [50%]; Others [27%],,Underground,105.7,456.0,Lignite,Thermal,20.5,1.2688655,0.7996569,0.63197374,1.1688315,1.6087675,1.4003848,1.5398266,0.6750205,0.285725,0.7918011,1.049306,1.2201674
M0206,Dananhu No. 2 Surface Mine, ,China,coal,Operating,42.380815,92.96712,Exact,State Grid Corporation of China Hami Coal & Energy Company,China Energy,,Surface,40.52,50.0,Subbituminous,Thermal,11.6,0.65416455,0.5472117,0.33159706,1.0466721,1.5452324,1.4775354,1.5908489,0.8896837,0.3680834,0.39375266,0.35789624,0.66996837
M0207,Dazhong Coal Mine, ,China,coal,Proposed,36.192541,114.092354,Exact,Anyang Dazhong Coal Industry Company,Jinqiu Holding Group [30%]; Anyang Sifang Real Estate Development Company [10%]; Yongmei Group [30%]; Henan Energy and Chemical Group [22%]; State-Owned Assets of the Municipal People's Government Supervision and Management Committee [6%]; Others [3%],,Underground,16.04,456.0,Anthracite,Thermal,33.7,0.6487317,0.28623345,0.45618966,0.44785002,0.53440243,0.547813,0.4214532,0.11616852,0.54424787,0.6742942,0.6857384,0.71591496
M0208,Dingji Coal Mine, ,China,coal,Operating,32.871396,116.631428,Exact,Huaihu Coal and Electricity Company,Huaihe Energy [50%]; China Cinda Asset Management [49%]; Others [1%],,Underground,95.67,456.0,Bituminous,Thermal & Met,95.0,0.72544277,1.0801744,0.9544387,0.7540911,0.7904377,1.13838,0.9872954,0.9142828,1.1212672,1.2839713,0.835101,0.47140953
M0209,Dongtan Coal Mine, ,China,coal,Operating,35.440703,116.899403,Exact,Yanzhou Coal Mining Company,Shandong Energy [46%]; HKSCC Nominees Limited [40%]; Others [14%],,Underground,59.96,456.0,Bituminous,Thermal,118.7,0.5665839,0.875365,0.95833474,0.75297487,1.1031654,1.3263348,1.4016135,0.85724723,0.70014775,0.81835985,0.50466955,0.2531733
M0210,Dongzhouyao Coal Mine, ,China,coal,Operating,40.020636,112.863555,Exact,Jinneng Holding Coal Industry Group Dongzhouyao Datong Company,Jinneng Group,,Underground,119.13,456.0,Bituminous,Thermal,158.3,2.5369747,2.136438,2.0534675,1.8137977,1.7349455,1.1753342,0.73024786,0.6266066,1.0180665,1.6674043,2.3885758,2.9677765
M0211,Eastern Yiminhe No. 1 Coal Mine, ,China,coal,Operating,48.767664,119.940867,Exact,Inner Mongolia Dayan Mining Group,China Energy,,Surface,49.14,50.0,Lignite,Thermal,4.5,1.93524,1.9546106,1.9917942,1.8541055,1.438717,0.5604538,1.5004438,0.93046474,1.1159918,1.6498528,1.7771418,2.439984
M0212,Fangjiapan Coal Mine, ,China,coal,Operating,38.574815,110.040462,Exact,Yulin Yuyang Fangjiapan Coal Industry Company,Wang Jinlong,,Underground & Surface,32.7,60.0,Bituminous,,5.0,1.9555435,1.215112,1.5025725,1.2722567,1.3506337,0.7711763,1.5686921,0.9923315,1.1218237,0.78100055,1.731451,2.3442576
M0213,Fengjiata Coal Mine, ,China,coal,Operating,39.196394,111.13213,Exact,Shaanxi Qingshuichuan Energy Company,Shaanxi Investment Group [66%]; Shaanxi Coal and Chemical Industry Group [34%],,Underground,59.5,456.0,Bituminous,,126.7,1.099749,1.0415108,1.2469429,0.8338072,1.088355,0.83769774,1.1751674,0.65958524,1.0015614,0.81015325,1.159252,1.2638376
M0214,Fenyuan Coal Mine, ,China,coal,Operating,38.573106,112.14003,Exact,Huozhou Coal and Electricity Group,Shanxi Coking Coal Group [57%]; China Cinda Asset Management Company [36%]; Others [8%],,Underground,12.7,456.0,Bituminous,,19.0,1.8344166,1.4682821,1.3538039,1.202669,1.194972,0.6063692,0.24929228,0.16514665,0.33169788,1.0231948,1.6278163,2.1369493
M0215,Rover Glushinsky-Shcheglovsky-Latyshevsky Coal Mines, ,Russia,coal,Operating,55.708642,86.076336,Exact,Rover LLC,Rover LLC [100%],,Surface,,60.0,Bituminous,,5.3,2.0694017,1.4991363,2.3792317,1.2071582,0.8512435,0.7856179,0.425664,0.46326467,0.7258793,1.9464911,1.9456377,1.7688696
M0217,Gangou Coal Mine, ,China,coal,Proposed,44.039167,81.171389,Exact,Xinjiang Zhenxing Tianyuan Coal Industry Company,Oriental Fortune (Beijing) Investment Management Company [90%]; Xinjiang Kekedala State-Owned Capital Investment and Operation Company [10%],,Underground,11.26,456.0,Bituminous,Thermal,38.0,2.8514307,2.4012632,1.5224721,1.1746763,0.53031963,0.67829233,0.7106211,0.6762941,0.8887492,1.4367713,1.8058524,2.5688648
M0218,Gaohe Coal Mine, ,China,coal,Operating,36.152253,112.990815,Exact,Shanxi Gaohe Energy Company,Lu'an Chemical Group [55%]; Asian American Continental Coal Company [45%],,Underground,65.35,456.0,Bituminous,Met,118.7,0.90135217,0.8011308,0.7910752,0.43464962,0.756918,0.75444704,0.57387275,0.674289,0.44999453,0.5017932,0.9156158,1.1087997
M0219,Gaojiabao Coal Mine, ,China,coal,Operating,35.268672,107.818112,Exact,Shaanxi Zhengtong Coal Industry,Shandong Energy,,Underground,219,456.0,Bituminous,Thermal,79.2,0.6723841,0.30988944,0.39041248,0.25792903,0.41459897,0.6411588,0.96280056,0.8810435,0.783429,0.38456258,0.58342695,0.7438141
M0220,Gaojialiang No.1 Coal Mine, ,China,coal,Operating,39.724671,110.065041,Exact,Ordos Haohua Fine Coal Company,Beijing Energy [50%]; Ordos Energy Investment and Development Company [20%]; Shougang Group [1%]; Others [29%],,Underground,96.24,456.0,Bituminous,Thermal,134.6,2.732403,2.1597736,2.1925647,1.991524,2.1292918,1.4735591,1.667033,0.8750235,1.561856,1.5881337,2.6840148,3.2413878
M0221,Gaoshangou Coal Mine, ,China,coal,Operating,39.874613,110.321401,Approximate,Dalate Wenxing Coal Company,Inner Mongolia Huarui Mining Company [70%]; Ma Tongchun [30%],,Surface,3.26,50.0,Subbituminous,Thermal,1.1,3.0209167,2.434195,2.3760896,2.124448,2.2414482,1.6332517,1.6548256,0.99725276,1.7221291,1.8897915,3.0086305,3.5209854
M0222,Gaotouyao Coal Mine, ,China,coal,Operating,40.019808,109.639961,Exact,Inner Mongolia Beilian Power and Energy Development Company,China Huaneng [77%]; Guangdong Hengjian Investment Holding Company [7%]; China Energy [4%]; Others [12%],,Underground,99.45,400.0,Bituminous,Thermal,148.8,3.301029,2.5745828,2.4950688,2.1089203,2.275579,1.6244788,1.8735278,1.2093067,2.0226722,2.0072856,3.195031,3.8649883
M0223,Guangdao Coal Mine, ,China,coal,Operating,36.504525,111.38717,Approximate,Shanxi Hongdong Xishan Guangdao Coal Industry Company,Shanxi Coking Coal Group [27%]; Hongdong Pingan Hengli Building Material Company [49%]; Others [24%],,Underground,16.7,456.0,Bituminous,Met,19.0,1.5785179,0.9658218,0.74684966,0.7577263,0.6561671,0.5246898,0.50014585,0.4505148,0.25324488,0.6566073,1.3935572,2.117646
M0224,Guanzigou Coal Mine, ,China,coal,Operating,39.549676,111.29482,Exact,Guanzigou Coal Company of Inner Mongolia Manshi Coal Group,Inner Mongolia Manshi Coal Group,,Underground,17.17,456.0,Bituminous,,95.0,0.8427722,0.78482383,0.94863814,0.68232286,0.9410635,0.70163864,1.0112731,0.6164134,0.8373337,0.6084972,0.94589615,1.0459313
M0225,Guizhou Dawan Coal Mine, ,China,coal,Operating,26.779016,104.612282,Exact,Guizhou Shuicheng Mining Company,Guizhou Shuicheng Coal Mine Group [62%]; China Cinda Asset Management [20%],,Underground,5.8,456.0,Bituminous,Met,14.2,0.7485197,0.700395,0.6141224,0.54089046,0.49350518,0.51816773,1.034697,0.96398556,0.8490838,0.63756484,0.719629,0.82845795
M0226,Guojiahe Coal Mine, ,China,coal,Operating,34.85669,107.539367,Exact,Shaanxi Guojiahe Coal Industry Company,Xuzhou Coal Mining Group [60%]; Shaanxi Investment Group [33%]; Baoji State-Owned Assets Management Company [8%],,Underground,94.61,456.0,Bituminous,Thermal,79.2,0.47759506,0.2846183,0.38260633,0.23711851,0.36569798,0.47970682,0.8034928,0.7245329,0.6663199,0.39200923,0.36757693,0.29030126
M0227,Guojiatan Coal Mine, ,China,coal,Proposed,38.611469,109.809687,Exact,Shaanxi Yulin Energy Group Guojiatan Mining Company,Shaanxi Yulin Energy Group,,Underground,14.03,456.0,Subbituminous,Thermal,51.2,1.9052957,1.1018317,1.4217896,1.2675328,1.3380059,0.7643463,1.5186948,1.0292283,1.1313314,0.71503174,1.6850736,2.3160377
M0229,Guqiao Coal Mine, ,China,coal,Operating,32.821408,116.545709,Exact,Huainan Mining Group,Huaihe Energy [83%]; China Cinda Asset Management [8%]; China Energy [3%]; Others [6%],,Underground,92.89,456.0,Bituminous,Thermal,142.5,0.74038213,1.0912808,0.9585823,0.7391392,0.7701611,1.1149993,0.962791,0.9172332,1.1400665,1.3124677,0.84812486,0.49235058
M0230,Haerwusu Surface Mine, ,China,coal,Operating,39.731044,111.258324,Exact,China Shenhua Energy,China Energy [69%]; HKSCC Nominees Limited [17%]; Others [14%],,Surface,67.17,260.0,Bituminous,Thermal,394.5,1.0885303,1.0410206,1.1540623,0.87923884,1.0616995,0.8279496,1.2255754,0.7287146,1.0350102,0.8022996,1.2685723,1.4281005
M0231,Halagou Coal Mine, ,China,coal,Operating,39.232488,110.076802,Exact,China Shenhua Energy,China Energy [69%]; HKSCC Nominees Limited [17%]; Others [14%],,Underground,72.13,456.0,Bituminous,,253.3,2.3339791,1.7122135,1.8272691,1.5727446,1.6898905,1.0578243,1.4704584,0.79942966,1.2441626,1.2082962,2.201031,2.7752209
M0232,Hanglaiwan Coal Mine, ,China,coal,Operating,38.530798,109.871886,Exact,Shaanxi Youse Yulin Coal Industry Company,Shaanxi Youser Group [63%]; Shaanxi Yanchang Petroleum Group [38%],,Underground,90.36,456.0,Bituminous,Thermal,158.3,1.819702,1.0166291,1.3374672,1.1959826,1.2438624,0.6925155,1.5180911,1.0372982,1.0927176,0.67933905,1.5853772,2.1938848
M0233,Hecaogou Coal Mine, ,China,coal,Operating,37.041071,109.666672,Exact,Yan'an Hecaogou Coal Industry Company,Yan’an Energy & Chemical Group [50%]; China Coal [29%]; HKSCC Nominees Limited [15%]; Others [6%],,Underground,100.56,456.0,Bituminous,Thermal,79.2,1.6256436,0.9655803,1.0863324,1.1099975,1.2315995,0.74838305,1.0116985,0.78727186,0.63850796,0.60344756,1.4552411,1.8799363
M0234,Hejiata Coal Mine, ,China,coal,Operating,39.169374,110.355952,Exact,Ministry of Justice of PRC,Ministry of Justice of PRC,,Underground,41.72,456.0,Bituminous,Thermal,28.5,1.7252914,1.3295245,1.5557117,1.341001,1.5122211,1.0472399,1.4436969,0.76798606,1.160618,1.0043494,1.7344654,1.9814539
M0235,Hengshi Coal Mine, ,China,coal,Operating,39.723889,106.892778,Exact,Wuhai Hengshi Energy Industry Company,Inner Mongolia Tianyu Innovation Investment Group [95%]; Jiuquan Haohai Coal Chemical Company [5%],,Surface,1.67,273.0,Bituminous,Met,13.8,1.624798,0.9590859,0.9539554,0.869228,1.069735,1.0242832,1.7718401,1.2505064,2.0146165,0.82500947,1.4117795,1.7821739
M0236,Hequ Jiuxian Coal Mine, ,China,coal,Operating,39.140067,111.196655,Exact,Shanxi Coal Import Export Group Hequ Old County Open-Pit Coal Industry Co,Shanxi Coking Coal Group,,Surface,24.95,60.0,Bituminous,Thermal,39.1,0.89198244,0.9768546,1.2604147,0.7254242,1.0975258,0.8201933,1.143686,0.70188946,1.0221931,0.77445495,0.99829185,1.119173
M0237,Hesigewula South Surface Coal Mine, ,China,coal,Operating,45.92834677,119.1066869,Exact,Inner Mongolia Xilinhe Coal Chemical Company,China Energy [51%]; Inner Mongolia Jarud Banner Xingta Mining Industry Company [49%],,Surface,17.55,168.0,Lignite,Thermal,36.8,3.3189797,3.3663664,3.020566,2.9833128,2.1960046,0.64915293,1.2456118,0.9694664,1.5143859,2.703609,3.3696847,4.12474
M0238,Hetaoyu Coal Mine, ,China,coal,Operating,35.269947,107.946376,Exact,China Huaneng Gansu Energy Development Company,China Huaneng,,Underground,183.2,1100.0,Bituminous,Thermal,168.6,0.66514957,0.33577147,0.46880502,0.30666283,0.4259647,0.705862,1.006966,0.9137742,0.8376977,0.4355241,0.58174944,0.72553355
M0239,Hongdunzi No. 1 Coal Mine, ,China,coal,Operating,38.392215,106.542109,Exact,Ningxia Hongdunzi Coal Industry Company,SPIC Aluminum & Power Investment Company [76%]; Ningxia State-Owned Capital Operation Group Compay [24%],,Underground,33.49,456.0,Bituminous,Met,38.0,1.451088,1.013704,0.5879905,0.5375344,0.64643604,0.593603,1.1266127,0.8127611,1.5060316,0.9191781,1.1183064,1.4555196
M0240,Hongdunzi No. 2 Coal Mine, ,China,coal,Operating,38.413869,106.581473,Exact,Ningxia Hongdunzi Coal Industry Company,SPIC Aluminum & Power Investment Company [76%]; Ningxia State-Owned Capital Operation Group Compay [24%],,Underground,22.7,456.0,Bituminous,Met,38.0,1.5833689,1.1208429,0.7045776,0.5851149,0.7184211,0.7086535,1.3708452,0.9920268,1.7678726,1.0802015,1.2390668,1.5162011
M0241,Hongjingta No. 1 Coal Mine, ,China,coal,Operating,39.458669,110.559449,Exact,Inner Mongolia Yitai Coal Group,Inner Mongolia Yitai Investment,,Underground,28.41,456.0,Bituminous,Thermal,61.7,2.1335425,1.7518849,1.7592357,1.5862954,1.6962756,1.1891994,1.3096313,0.635916,1.1729419,1.321996,2.1236563,2.391673
M0242,Hongliulin Coal Mine, ,China,coal,Operating,38.935223,110.400815,Exact,Shaanxi Coal Group; Shenmu Hongliulin Mining Company,Shaanxi Coal and Chemical Industry Group [32%]; Shenmu County State-Owned Assets Operation Company [24%]; Shaanxi Yulin Energy Group [25%]; China Development Bank [19%],,Underground,151,456.0,Bituminous,Thermal,285.0,1.5642098,1.0871339,1.3669668,1.1341742,1.2419385,0.84133244,1.4678229,0.82602525,1.0922502,0.799191,1.4839817,1.7686453
M0243,Hongqinghe Coal Mine, ,China,coal,Operating,39.292114,109.684071,Exact,Inner Mongolia Yitai Guanglian Coal Chemical Company,Inner Mongolia Yitai Investment [90%]; Inner Mongolia Guanglian Minzu Economic Development Company [5%]; Inner Mongolia Coal Field Geological Bureau [5%],,Underground,181.44,456.0,Bituminous,Thermal,126.7,2.3640304,1.6653781,1.787261,1.6296046,1.8069503,1.123694,1.4213501,0.86522734,1.3209711,1.1107266,2.2416406,2.9199173
M0244,Hongqingliang Coal Mine, ,China,coal,Operating,39.875788,109.367767,Exact,Hangjinqi West Energy Development Company,Shanxi Zhongbo Real Estate Development Company [40%]; Beijing Energy Group [37%]; Shougang Group [1%]; China Coal [1%],,Underground,48.58,456.0,Bituminous,Thermal,95.0,3.0982165,2.366125,2.2681224,1.9214911,2.0805874,1.4563797,1.8119245,1.1272663,1.8597339,1.7300451,2.9562104,3.6753983
M0245,Hongshan West Coal Mine, ,China,coal,Proposed,44.438297,84.766747,Exact,Xinjiang Zhongfu Mining Industry Company,State-Owned Assets Management Company Hangzhou Jinjiang Group [51%]; Zhejiang Kangrui Investment Company [44%],,Underground,11.08,456.0,Bituminous,Thermal,19.0,0.50937593,0.3553805,0.37613568,0.8229019,1.9143701,1.6236464,1.7567351,1.370711,0.6100051,0.279969,0.33672267,0.4672842
M0246,Hongshaquan No. 1 Surface Mine, ,China,coal,Operating,44.502378,90.296864,Exact,China Energy Xinjiang Hongshaquan Energy Company,China Energy,,Surface,79.37,60.0,Bituminous,Thermal,117.2,1.8853917,1.4753222,1.133968,1.5445853,3.4471178,3.6799557,3.5475283,2.8240736,2.0796723,0.60277617,1.3777525,2.0934875
M0247,Hongshaquan North Coal Mine, ,China,coal,Operating,44.5192,90.3135,Exact,Zhonglian Runshi Xinjiang Coal Industry Company,Yima Coal Industry Group [60%]; Beijing Lirui Investment Company [40%],,Surface,12.88,60.0,Bituminous,Thermal,46.9,1.8853917,1.4753222,1.133968,1.5445853,3.4471178,3.6799557,3.5475283,2.8240736,2.0796723,0.60277617,1.3777525,2.0934875
M0248,Hongshuliang Coal Mine, ,China,coal,Operating,39.452624,111.290036,Exact,Inner Mongolia Kailuan Hongfeng Coal Company,Kailuan Group [60%]; Inner Mongolia Shengli Resource Group [16%]; Erdos Chunhui Forest Company [12%]; Junggar Juli Cultivation Company [12%],,Underground,29.69,456.0,Bituminous,Thermal,79.2,0.8427722,0.78482383,0.94863814,0.68232286,0.9410635,0.70163864,1.0112731,0.6164134,0.8373337,0.6084972,0.94589615,1.0459313
M0249,Hongsi Coal Mine, ,China,coal,Operating,38.480866,106.613547,Exact,Ningxia Baofeng Group,Ningxia Baofeng Group [36%]; Dongyi International Group [27%]; Others [37%],,Underground,25.38,456.0,Bituminous,Met,47.5,1.3525231,1.091281,0.6318159,0.5036446,0.65098006,0.58313626,1.1253695,0.7836951,1.4901509,0.9938852,1.1093464,1.3473959
M0250,Huangling Jianzhuang Coal Mine, ,China,coal,Operating,35.390535,108.919611,Exact,Shaanxi Coal Industry Group Huangling Jianzhuang Mining Company,Shaanxi Coal and Chemical Industry Group [25%]; China Huadian [21%]; China Energy [30%]; Others [24%],,Underground,91.52,456.0,Bituminous,,79.2,0.83073,0.3928507,0.3431403,0.27323318,0.54205185,0.5782851,0.87321,0.9395487,0.80822545,0.40053925,0.71892095,1.058943
M0251,Huangling No. 1 Coal Mine, ,China,coal,Operating,35.656136,109.064794,Exact,Huangling Mining Company,Shaanxi Coal and Chemical Industry Group,,Underground,197.5,456.0,Bituminous,Thermal,95.0,0.85463524,0.40438822,0.35114962,0.26262513,0.5091849,0.50058496,0.76656014,0.80664045,0.61097836,0.2707822,0.69698346,1.1223048
M0252,Huangling No. 2 Coal Mine, ,China,coal,Operating,35.661062,108.91871,Exact,Shaanxi Huangling No.2 Coal Mine Company,Shaanxi Coal and Chemical Industry Group [34%]; Jiangsu Yueda Group [45%]; Industrial and Commercial Bank of China [21%],,Underground,351.94,456.0,Bituminous,,126.7,0.78181607,0.41056487,0.37986487,0.26735863,0.55018044,0.58177793,0.85450524,0.89873755,0.74854743,0.32704917,0.6260845,1.0155935
M0253,Huangyuchuan Coal Mine, ,China,coal,Operating,39.67209,111.183497,Exact,China Energy Elion Energy Company,China Energy [37%]; Elion Group [49%]; Others [14%],,Underground,42.68,456.0,Bituminous,Thermal,205.8,1.255254,1.0875176,1.1521506,0.9534741,1.087512,0.84310496,1.2558937,0.702451,1.0376848,0.8162707,1.3665581,1.5043197
M0254,Hujiahe Coal Mine, ,China,coal,Operating,35.149375,107.933254,Exact,Shaanxi Binchang Hujiahe Mining Company,Shaanxi Coal and Chemical Industry Group [45%]; China Development Bank [6%]; Others [49%],,Underground,55.24,250.0,Bituminous,Thermal,52.5,0.6301739,0.2460879,0.38283306,0.24414054,0.4161683,0.6262687,1.0435994,0.9333056,0.83723557,0.32214266,0.47534662,0.66587806
M0255,Hulusu Coal Mine, ,China,coal,Operating,39.047968,109.500809,Exact,Zhongtian Hechuang Energy Company,China Coal [38%]; Sinopec [38%]; Shenergy [13%]; Manshi Group [10%]; Others [1%],,Underground,92.76,456.0,Bituminous,Thermal,126.7,2.192704,1.3946881,1.680627,1.5187979,1.6698239,1.0382271,1.5850396,1.0156865,1.3677288,0.8687145,2.05404,2.7329173
M0256,Huojitu Well Of Daliuta Coal Mine, ,China,coal,Operating,39.259312,110.224368,Exact,China Shenhua Energy,China Energy [69%]; HKSCC Nominees Limited [17%]; Others [14%],,Underground,63.78,456.0,Subbituminous,Thermal,76.8,2.2812757,1.7271465,1.8334739,1.6179714,1.7525176,1.1341898,1.4453552,0.7550393,1.2391381,1.2563033,2.19723,2.682896
M0257,Huolinhe South Surface Mine, ,China,coal,Operating,45.496018,119.594395,Exact,Inner Mongolia Huolinhe Open-Pit Coal Industry Company,State Power Investment Corporation [SPIC] [39%]; Huolinhe Coal Industry Group [26%]; Others [35%],,Surface,34,276.0,Lignite,Thermal,62.3,3.7901418,3.6213248,3.1781187,2.8685837,2.1909528,0.7516694,1.1573961,1.0953586,1.6577601,2.925867,3.7479858,4.7740793
M0258,Inner Mongolia Erlintu Coal Mine, ,China,coal,Operating,39.217439,110.006028,Exact,Inner Mongolia Huineng Group Er Lin Tu Coal Company,Inner Mongolia Huineng Coal and Electricity Group [55%]; Shenmu Taide Energy Investment Company [17%]; Inner Mongolia Kaiyuan Shiye Group [10%]; Shendong Tianlong Group [9%]; Erdos Jiuyuan Investment Company [2%]; Others [7%],,Underground,70.33,456.0,Bituminous,Thermal,126.7,2.4411387,1.7680275,1.8719425,1.6163594,1.7327054,1.0673755,1.4760076,0.81964886,1.2693676,1.2272707,2.284969,2.9288466
M0259,Jiangjun Gebi No. 2 Coal Mine, ,China,coal,Operating,44.648912,90.152365,Exact,Xinjiang Tianchi Energy,Tebian Electric Apparatus [TBEA] [86%]; Xinjiang Joinworld Company [14%],,Surface,77.5,60.0,Bituminous,Thermal,117.2,1.3979323,1.2147713,0.81954473,1.2760502,2.9711053,3.1966436,3.0771441,2.3673306,1.6942708,0.481159,1.1894228,1.6713078
M0261,Jianyuan Coal Mine, ,China,coal,Proposed,39.342871,106.995121,Exact,Otog Banner Jianyuan Coking Company,Hongxing International Development Company,,Underground,25.42,456.0,Bituminous,,60.2,1.522955,0.8137968,0.82798,0.88064474,1.0392917,0.7471866,1.5101317,0.9517037,1.5443301,0.37791786,1.2716438,1.6860719
M0262,Jilangde Coal Mine, ,China,coal,Operating,44.181805,91.738652,Approximate,Hami Hexiang Industry and Trade Company,China Coal [46%]; Ningbo Hesheng Group [20%]; Xinjiang Coal Trading Center Company [10%]; Others [24%],,Surface,14.89,50.0,Subbituminous,Thermal,2.7,2.9995651,2.598253,2.6758766,2.859419,4.443574,4.2774796,4.344151,3.3535545,2.795672,2.2127838,2.6132483,2.797717
M0263,Jingfu Bachigou Coal Mine, ,China,coal,Shelved,39.053177,111.076716,Exact,Fugu State-Owned Assets Management Bureau,Fugu State-Owned Assets Management Bureau,,Underground,8.28,456.0,Anthracite,Thermal,42.1,0.95749885,0.9739982,1.240629,0.76393586,1.0697429,0.8206407,1.1974789,0.68964005,1.0310055,0.7737758,1.0295998,1.1154149
M0264,Jinggong No. 1 Coal Mine, ,China,coal,Operating,39.446524,112.361964,Exact,China Coal Pingshuo Group,China Coal [57%]; HKSCC Nominees Limited [30%]; Others [13%],,Underground,20.21,456.0,Bituminous,,158.3,2.3649344,1.8967162,1.7467194,1.4907955,1.5029147,0.96627295,0.702841,0.49650165,0.83926415,1.3735406,2.0913944,2.7305539
M0265,Jinggong No. 3 Coal Mine, ,China,coal,Operating,39.539072,112.326699,Exact,China Coal Pingshuo Group,China Coal [57%]; HKSCC Nominees Limited [30%]; Others [13%],,Underground,19.23,456.0,Bituminous,,158.3,2.4534218,1.9768643,1.8374182,1.5304698,1.5348278,0.98155785,0.6638309,0.45548388,0.82829756,1.4267255,2.198861,2.8592842
M0266,Jining No. 3 Coal Mine, ,China,coal,Operating,35.274389,116.667245,Exact,Yanzhou Coal Mining Company,Shandong Energy [46%]; HKSCC Nominees Limited [40%]; Others [14%],,Underground,105.1,456.0,Bituminous,Thermal,95.0,0.47777975,0.8385243,0.94228894,0.71565336,1.090413,1.3554409,1.4060991,0.7906102,0.64527136,0.8019141,0.49301425,0.22460097
M0267,Jinjie Coal Mine, ,China,coal,Operating,38.742365,110.171171,Exact,China Energy Jinjie Energy Company,China Energy [49%]; State Grid Corporation of China [30%]; Others [21%],,Underground,141.77,456.0,Bituminous,Thermal,285.0,1.8616385,1.2091602,1.4587208,1.2228318,1.3027217,0.7913538,1.5352638,0.9059936,1.084132,0.8013794,1.6705679,2.1759348
M0268,Jinjitan Coal Mine, ,China,coal,Operating,38.506707,109.819371,Exact,Shaanxi Future Energy Chemical Company,Shandong Energy [62%]; Shaanxi Yanchang Petroleum Group [19%]; Jiaxing Dejian Investment Partnership [5%]; Others [14%],,Underground,107.89,456.0,Bituminous,Thermal,269.1,1.7881696,0.96543354,1.2916988,1.1896077,1.2305665,0.6882823,1.4973866,1.0654596,1.1072062,0.6514356,1.5554086,2.1708639
M0269,Jinneng Coal Mine, ,China,coal,Operating,38.401258,112.022623,Exact,Huozhou Coal and Electricity Group,China Huadian [49%]; Shanxi Coking Coal Group [30%]; China Cinda Asset Management [20%]; China Construction Bank [1%],,Underground,20.42,456.0,Bituminous,Met,19.0,1.9597912,1.4895965,1.3208766,1.1152012,1.1227808,0.5262452,0.3026955,0.21632835,0.23467228,0.99320126,1.7262279,2.3166077
M0270,Kabuqi Coal Mine, ,China,coal,Operating,39.623996,106.892109,Exact,Wuhai Wenming Mining Company,Inner Mongolia Tianyu Innovation Investment Group,,Surface,2.26,290.0,Bituminous,Met,14.3,1.5695411,0.88230616,0.9486176,0.8541326,1.0511028,0.9151794,1.681988,1.1522673,1.8785418,0.632212,1.3981528,1.9132566
M0271,Kouzi East Coal Mine, ,China,coal,Operating,32.833342,116.162687,Exact,China Coal Xinji Energy,China Coal [30%]; China Energy [7%]; Anhui Xinji Coal and Electricity Group [7%] China COSCO Shipping [56%],,Underground,33.6,456.0,Bituminous,Thermal & Met,79.2,0.7266964,1.0670942,0.896817,0.6806797,0.7235174,1.0473621,0.8981053,0.8624666,1.1121607,1.2678202,0.8438266,0.46807137
M0272,Liang Bei Coal Mine, ,China,coal,Operating,34.090606,113.464711,Approximate,Henan Xuchang Xinlong Mine Industry Company,Henan Shenhuo Group [24%]; Shangqiu Oriental Investment Company [14%]; Others [62%],,Underground,42.33,800.0,Bituminous,Met,46.6,0.9039093,0.37446547,0.38268542,0.28000447,0.6263877,0.83990705,0.7219349,0.6013526,0.5461992,0.78165907,1.0054648,0.8254974
M0274,Liangshuijing Coal Mine, ,China,coal,Operating,38.794192,110.246348,Exact,Shaaxi Energy Liangshuijing Mining Company,Shaanxi Investment Group [47%]; Shaanxi Yulin Energy Group Huisen Investment and Management [5%]; China Energy [30%]; Shenmu State-Owned Assets Operation Company [17%]; Others [1%],,Underground,68.9,456.0,Bituminous,,126.7,1.8402877,1.233685,1.4965105,1.2477616,1.3441807,0.8303375,1.5311886,0.8941121,1.1242514,0.8426342,1.6892352,2.1584866
M0275,Libi Coal Mine, ,China,coal,Proposed,35.695959,112.289351,Exact,Guotou Jincheng Energy Investment Company,China Coal [51%]; Shanxi Coking Coal Group [49%],,Underground,43.42,456.0,Anthracite,Thermal,112.4,1.4469484,0.8751542,0.5636492,0.49846685,0.68452734,0.60799134,0.7119304,0.76533335,0.36026108,0.5456876,1.2683537,2.004872
M0276,Lijiahao Coal Mine, ,China,coal,Operating,39.738114,110.024669,Exact,China Energy Baotou Energy Company,China Energy [69%]; HKSCC Nominees Limited [17%]; Others [14%],,Underground,67.65,456.0,Bituminous,Thermal,95.0,2.7371545,2.1327953,2.156014,1.9689784,2.108327,1.4429641,1.6407472,0.87328064,1.5460124,1.5415195,2.667793,3.2732496
M0277,Lingbei Coal Mine, ,China,coal,Proposed,36.943231,111.710691,Exact,Shanxi Fenxi Mining Group,Shanxi Coking Coal Group [59%]; China Cinda Asset Management Company [36%]; China Huarong Asset Management Company [2%]; China Construction Bank [2%]; Others [1%],,Underground,29.54,456.0,Bituminous,Met,38.0,1.1378744,0.9208456,0.89918,0.69792414,0.7100924,0.8714936,0.33989996,0.29791325,0.32746828,0.6513185,1.0476065,1.3210452
